Landskode	Stadnamn nynorsk	Stadnamn bokmål	Stadnamn engelsk	Geonames-ID	Stadtype nynorsk	Stadtype bokmål	Stadtype engelsk	Landsnamn nynorsk	Landsnamn bokmål	Landsnamn engelsk	Folketal	Lat	Lon	Høgd over havet	Lenke til county	Lenke til engelsk-XML
AD	Vila	Vila	Vila	3038832	folkesett stad	befolket sted	populated place	Andorra	Andorra	Andorra	0	42.53222	1.57392	1418	Encamp	https://api.met.no/weatherapi/locationforecast/2.0/compact?lat=42.53222&lon=1.57392
AD	Sornàs	Sornàs	Sornàs	3038987	folkesett stad	befolket sted	populated place	Andorra	Andorra	Andorra	0	42.56540	1.52870	1514	Ordino	https://api.met.no/weatherapi/locationforecast/2.0/compact?lat=42.56540&lon=1.52870
AD	Sispony	Sispony	Sispony	3039077	folkesett stad	befolket sted	populated place	Andorra	Andorra	Andorra	0	42.53355	1.51481	1252	la_Massana	https://api.met.no/weatherapi/locationforecast/2.0/compact?lat=42.53355&lon=1.51481
AD	Segudet	Segudet	Segudet	3039132	folkesett stad	befolket sted	populated place	Andorra	Andorra	Andorra	0	42.55755	1.53858	1556	Ordino	https://api.met.no/weatherapi/locationforecast/2.0/compact?lat=42.55755&lon=1.53858
AD	Sant Pere	Sant Pere	Sant Pere	3039154	folkesett stad	befolket sted	populated place	Andorra	Andorra	Andorra	0	42.57952	1.65362	1767	Canillo	https://api.met.no/weatherapi/locationforecast/2.0/compact?lat=42.57952&lon=1.65362
AD	Andorra la Vella	Andorra la Vella	Andorra la Vella	3041563	Hovudstad	Hovedstad	capital	Andorra	Andorra	Andorra	20430	42.50779	1.52109	1073	Andorra_la_Vella	https://api.met.no/weatherapi/locationforecast/2.0/compact?lat=42.50779&lon=1.52109
AD	les Escaldes	les Escaldes	Escaldes-Engordany	3040051	regionshovudstad	regionshovedstad	regional capital	Andorra	Andorra	Andorra	15853	42.50729	1.53414	1350	Escaldes-Engordany	https://api.met.no/weatherapi/locationforecast/2.0/compact?lat=42.50729&lon=1.53414
AD	Encamp	Encamp	Encamp	3040686	regionshovudstad	regionshovedstad	regional capital	Andorra	Andorra	Andorra	11223	42.53451	1.57670	1309	Encamp	https://api.met.no/weatherapi/locationforecast/2.0/compact?lat=42.53451&lon=1.57670
AD	Sant Julià de Lòria	Sant Julià de Lòria	Sant Julià de Lòria	3039163	regionshovudstad	regionshovedstad	regional capital	Andorra	Andorra	Andorra	8022	42.46372	1.49129	1045	Sant_Julià_de_Lòria	https://api.met.no/weatherapi/locationforecast/2.0/compact?lat=42.46372&lon=1.49129
AD	la Massana	la Massana	La Massana	3040132	regionshovudstad	regionshovedstad	regional capital	Andorra	Andorra	Andorra	7211	42.54499	1.51483	1257	la_Massana	https://api.met.no/weatherapi/locationforecast/2.0/compact?lat=42.54499&lon=1.51483
AD	Canillo	Canillo	Canillo	3041204	regionshovudstad	regionshovedstad	regional capital	Andorra	Andorra	Andorra	3292	42.56690	1.59556	1640	Canillo	https://api.met.no/weatherapi/locationforecast/2.0/compact?lat=42.56690&lon=1.59556
AD	l'Aldosa	l'Aldosa	l'Aldosa	3040140	folkesett stad	befolket sted	populated place	Andorra	Andorra	Andorra	195	42.58333	1.63333	1722	Canillo	https://api.met.no/weatherapi/locationforecast/2.0/compact?lat=42.58333&lon=1.63333
AD	Canillo	Canillo	Canillo	3041204	regionshovudstad	regionshovedstad	regional capital	Andorra	Andorra	Andorra	3292	42.56690	1.59556	1640	Canillo	https://api.met.no/weatherapi/locationforecast/2.0/compact?lat=42.56690&lon=1.59556
AD	Encamp	Encamp	Encamp	3040686	regionshovudstad	regionshovedstad	regional capital	Andorra	Andorra	Andorra	11223	42.53451	1.57670	1309	Encamp	https://api.met.no/weatherapi/locationforecast/2.0/compact?lat=42.53451&lon=1.57670
AD	Encamp	Encamp	Encamp	3040686	regionshovudstad	regionshovedstad	regional capital	Andorra	Andorra	Andorra	11223	42.53451	1.57670	1309	Encamp	https://api.met.no/weatherapi/locationforecast/2.0/compact?lat=42.53451&lon=1.57670
AD	l'Aldosa	l'Aldosa	l'Aldosa	3040141	folkesett stad	befolket sted	populated place	Andorra	Andorra	Andorra	594	42.54391	1.52289	1397	la_Massana	https://api.met.no/weatherapi/locationforecast/2.0/compact?lat=42.54391&lon=1.52289
AD	la Massana	la Massana	La Massana	3040132	regionshovudstad	regionshovedstad	regional capital	Andorra	Andorra	Andorra	7211	42.54499	1.51483	1257	la_Massana	https://api.met.no/weatherapi/locationforecast/2.0/compact?lat=42.54499&lon=1.51483
AD	Ordino	Ordino	Ordino	3039678	regionshovudstad	regionshovedstad	regional capital	Andorra	Andorra	Andorra	3066	42.55623	1.53319	1340	Ordino	https://api.met.no/weatherapi/locationforecast/2.0/compact?lat=42.55623&lon=1.53319
AD	Sant Julià de Lòria	Sant Julià de Lòria	Sant Julià de Lòria	3039163	regionshovudstad	regionshovedstad	regional capital	Andorra	Andorra	Andorra	8022	42.46372	1.49129	1045	Sant_Julià_de_Lòria	https://api.met.no/weatherapi/locationforecast/2.0/compact?lat=42.46372&lon=1.49129
AD	Andorra la Vella	Andorra la Vella	Andorra la Vella	3041563	Hovudstad	Hovedstad	capital	Andorra	Andorra	Andorra	20430	42.50779	1.52109	1073	Andorra_la_Vella	https://api.met.no/weatherapi/locationforecast/2.0/compact?lat=42.50779&lon=1.52109
AD	les Escaldes	les Escaldes	Escaldes-Engordany	3040051	regionshovudstad	regionshovedstad	regional capital	Andorra	Andorra	Andorra	15853	42.50729	1.53414	1350	Escaldes-Engordany	https://api.met.no/weatherapi/locationforecast/2.0/compact?lat=42.50729&lon=1.53414
AE	Sarūj	Sarūj	Sarūj	290896	folkesett stad	befolket sted	populated place	Dei sameinte arabiske emirata	De forente arabiske emirater	United Arab Emirates	0	25.26636	56.30934	386	Other	https://api.met.no/weatherapi/locationforecast/2.0/compact?lat=25.26636&lon=56.30934
AE	Ḩajar	Ḩajar	Ḩajar	292023	folkesett stad	befolket sted	populated place	Dei sameinte arabiske emirata	De forente arabiske emirater	United Arab Emirates	0	25.27732	56.25416	433	Other	https://api.met.no/weatherapi/locationforecast/2.0/compact?lat=25.27732&lon=56.25416
AE	Al ‘Ayn al Ghumūr	Al ‘Ayn al Ghumūr	Al ‘Ayn al Ghumūr	292911	folkesett stad	befolket sted	populated place	Dei sameinte arabiske emirata	De forente arabiske emirater	United Arab Emirates	0	24.95951	56.31585	83	Other	https://api.met.no/weatherapi/locationforecast/2.0/compact?lat=24.95951&lon=56.31585
AE	Al Arḑīyah	Al Arḑīyah	Al Arḑīyah	292917	folkesett stad	befolket sted	populated place	Dei sameinte arabiske emirata	De forente arabiske emirater	United Arab Emirates	0	25.27663	56.31675	307	Other	https://api.met.no/weatherapi/locationforecast/2.0/compact?lat=25.27663&lon=56.31675
AE	Būbādī	Būbādī	Būbādī	394082	folkesett stad	befolket sted	populated place	Dei sameinte arabiske emirata	De forente arabiske emirater	United Arab Emirates	0	24.84470	55.97887	321	Other	https://api.met.no/weatherapi/locationforecast/2.0/compact?lat=24.84470&lon=55.97887
AE	Dubai	Dubai	Dubai	292223	regionshovudstad	regionshovedstad	regional capital	Dei sameinte arabiske emirata	De forente arabiske emirater	United Arab Emirates	1137347	25.25817	55.30472	12	Dubai	https://api.met.no/weatherapi/locationforecast/2.0/compact?lat=25.25817&lon=55.30472
AE	Abu Dhabi	Abu Dhabi	Abu Dhabi	292968	Hovudstad	Hovedstad	capital	Dei sameinte arabiske emirata	De forente arabiske emirater	United Arab Emirates	603492	24.46667	54.36667	14	Abu_Dhabi	https://api.met.no/weatherapi/locationforecast/2.0/compact?lat=24.46667&lon=54.36667
AE	Sharjah	Sharjah	Sharjah	292672	regionshovudstad	regionshovedstad	regional capital	Dei sameinte arabiske emirata	De forente arabiske emirater	United Arab Emirates	543733	25.35731	55.40330	20	Sharjah	https://api.met.no/weatherapi/locationforecast/2.0/compact?lat=25.35731&lon=55.40330
AE	Al ‘Ayn	Al ‘Ayn	Al Ain	292913	by	by	city	Dei sameinte arabiske emirata	De forente arabiske emirater	United Arab Emirates	408733	24.19167	55.76056	280	Abu_Dhabi	https://api.met.no/weatherapi/locationforecast/2.0/compact?lat=24.19167&lon=55.76056
AE	Ajman	Ajman	Ajman	292932	regionshovudstad	regionshovedstad	regional capital	Dei sameinte arabiske emirata	De forente arabiske emirater	United Arab Emirates	226172	25.41111	55.43504	16	Ajman	https://api.met.no/weatherapi/locationforecast/2.0/compact?lat=25.41111&lon=55.43504
AE	Abu Dhabi	Abu Dhabi	Abu Dhabi	292968	Hovudstad	Hovedstad	capital	Dei sameinte arabiske emirata	De forente arabiske emirater	United Arab Emirates	603492	24.46667	54.36667	14	Abu_Dhabi	https://api.met.no/weatherapi/locationforecast/2.0/compact?lat=24.46667&lon=54.36667
AE	Al ‘Ayn	Al ‘Ayn	Al Ain	292913	by	by	city	Dei sameinte arabiske emirata	De forente arabiske emirater	United Arab Emirates	408733	24.19167	55.76056	280	Abu_Dhabi	https://api.met.no/weatherapi/locationforecast/2.0/compact?lat=24.19167&lon=55.76056
AE	Z̧uwayhir	Z̧uwayhir	Z̧uwayhir	290400	folkesett stad	befolket sted	populated place	Dei sameinte arabiske emirata	De forente arabiske emirater	United Arab Emirates	0	23.28333	53.20000	170	Abu_Dhabi	https://api.met.no/weatherapi/locationforecast/2.0/compact?lat=23.28333&lon=53.20000
AE	Z̧uwayhir	Z̧uwayhir	Z̧uwayhir	290401	folkesett stad	befolket sted	populated place	Dei sameinte arabiske emirata	De forente arabiske emirater	United Arab Emirates	0	23.13916	53.69340	104	Abu_Dhabi	https://api.met.no/weatherapi/locationforecast/2.0/compact?lat=23.13916&lon=53.69340
AE	Z̧afīr	Z̧afīr	Z̧afīr	290454	folkesett stad	befolket sted	populated place	Dei sameinte arabiske emirata	De forente arabiske emirater	United Arab Emirates	0	23.12732	53.75439	198	Abu_Dhabi	https://api.met.no/weatherapi/locationforecast/2.0/compact?lat=23.12732&lon=53.75439
AE	Ajman	Ajman	Ajman	292932	regionshovudstad	regionshovedstad	regional capital	Dei sameinte arabiske emirata	De forente arabiske emirater	United Arab Emirates	226172	25.41111	55.43504	16	Ajman	https://api.met.no/weatherapi/locationforecast/2.0/compact?lat=25.41111&lon=55.43504
AE	Suhaylah	Suhaylah	Suhaylah	286280	folkesett stad	befolket sted	populated place	Dei sameinte arabiske emirata	De forente arabiske emirater	United Arab Emirates	0	24.80388	56.19449	238	Ajman	https://api.met.no/weatherapi/locationforecast/2.0/compact?lat=24.80388&lon=56.19449
AE	Şufayrī	Şufayrī	Şufayrī	290729	folkesett stad	befolket sted	populated place	Dei sameinte arabiske emirata	De forente arabiske emirater	United Arab Emirates	0	24.81168	56.12646	309	Ajman	https://api.met.no/weatherapi/locationforecast/2.0/compact?lat=24.81168&lon=56.12646
AE	Sinādil	Sinādil	Sinādil	290748	folkesett stad	befolket sted	populated place	Dei sameinte arabiske emirata	De forente arabiske emirater	United Arab Emirates	0	24.81095	56.02511	424	Ajman	https://api.met.no/weatherapi/locationforecast/2.0/compact?lat=24.81095&lon=56.02511
AE	Sharīyah	Sharīyah	Sharīyah	290823	folkesett stad	befolket sted	populated place	Dei sameinte arabiske emirata	De forente arabiske emirater	United Arab Emirates	0	24.81512	56.09860	319	Ajman	https://api.met.no/weatherapi/locationforecast/2.0/compact?lat=24.81512&lon=56.09860
AE	Dubai	Dubai	Dubai	292223	regionshovudstad	regionshovedstad	regional capital	Dei sameinte arabiske emirata	De forente arabiske emirater	United Arab Emirates	1137347	25.25817	55.30472	12	Dubai	https://api.met.no/weatherapi/locationforecast/2.0/compact?lat=25.25817&lon=55.30472
AE	Warīsān	Warīsān	Warīsān	290503	folkesett stad	befolket sted	populated place	Dei sameinte arabiske emirata	De forente arabiske emirater	United Arab Emirates	0	25.16744	55.40708	20	Dubai	https://api.met.no/weatherapi/locationforecast/2.0/compact?lat=25.16744&lon=55.40708
AE	‘Urqūb Juwayza	‘Urqūb Juwayza	‘Urqūb Juwayza	290546	folkesett stad	befolket sted	populated place	Dei sameinte arabiske emirata	De forente arabiske emirater	United Arab Emirates	0	24.93333	55.46667	102	Dubai	https://api.met.no/weatherapi/locationforecast/2.0/compact?lat=24.93333&lon=55.46667
AE	Umm Suqaym	Umm Suqaym	Umm Suqaym	290581	del av folkesett stad	del av befolket sted	section of populated place	Dei sameinte arabiske emirata	De forente arabiske emirater	United Arab Emirates	0	25.15015	55.20587	26	Dubai	https://api.met.no/weatherapi/locationforecast/2.0/compact?lat=25.15015&lon=55.20587
AE	‘Ūd al Bayḑā’	‘Ūd al Bayḑā’	‘Ūd al Bayḑā’	290624	folkesett stad	befolket sted	populated place	Dei sameinte arabiske emirata	De forente arabiske emirater	United Arab Emirates	0	25.01625	55.45533	95	Dubai	https://api.met.no/weatherapi/locationforecast/2.0/compact?lat=25.01625&lon=55.45533
AE	Al Fujayrah	Al Fujayrah	Fujairah	292878	regionshovudstad	regionshovedstad	regional capital	Dei sameinte arabiske emirata	De forente arabiske emirater	United Arab Emirates	62415	25.11641	56.34141	72	Fujairah	https://api.met.no/weatherapi/locationforecast/2.0/compact?lat=25.11641&lon=56.34141
AE	Zubārah	Zubārah	Zubārah	290409	folkesett stad	befolket sted	populated place	Dei sameinte arabiske emirata	De forente arabiske emirater	United Arab Emirates	0	25.40487	56.35971		Fujairah	https://api.met.no/weatherapi/locationforecast/2.0/compact?lat=25.40487&lon=56.35971
AE	Zikt	Zikt	Zikt	290419	folkesett stad	befolket sted	populated place	Dei sameinte arabiske emirata	De forente arabiske emirater	United Arab Emirates	0	25.51180	56.32328	41	Fujairah	https://api.met.no/weatherapi/locationforecast/2.0/compact?lat=25.51180&lon=56.32328
AE	Z̧anḩah	Z̧anḩah	Z̧anḩah	290442	folkesett stad	befolket sted	populated place	Dei sameinte arabiske emirata	De forente arabiske emirater	United Arab Emirates	0	25.56590	56.20217	93	Fujairah	https://api.met.no/weatherapi/locationforecast/2.0/compact?lat=25.56590&lon=56.20217
AE	Wāsiţ	Wāsiţ	Wāsiţ	290500	folkesett stad	befolket sted	populated place	Dei sameinte arabiske emirata	De forente arabiske emirater	United Arab Emirates	0	25.60698	56.25480	9	Fujairah	https://api.met.no/weatherapi/locationforecast/2.0/compact?lat=25.60698&lon=56.25480
AE	Ra’s al Khaymah	Ra’s al Khaymah	Ra’s al Khaymah	291074	regionshovudstad	regionshovedstad	regional capital	Dei sameinte arabiske emirata	De forente arabiske emirater	United Arab Emirates	115949	25.78953	55.94320	27	Ras_al-Khaimah	https://api.met.no/weatherapi/locationforecast/2.0/compact?lat=25.78953&lon=55.94320
AE	Yinas	Yinas	Yinas	290462	folkesett stad	befolket sted	populated place	Dei sameinte arabiske emirata	De forente arabiske emirater	United Arab Emirates	0	25.73158	56.13405	1079	Ras_al-Khaimah	https://api.met.no/weatherapi/locationforecast/2.0/compact?lat=25.73158&lon=56.13405
AE	Wad Wid	Wad Wid	Wad Wid	290518	folkesett stad	befolket sted	populated place	Dei sameinte arabiske emirata	De forente arabiske emirater	United Arab Emirates	0	25.62515	56.01396	17	Ras_al-Khaimah	https://api.met.no/weatherapi/locationforecast/2.0/compact?lat=25.62515&lon=56.01396
AE	‘Uraybī	‘Uraybī	‘Uraybī	290550	del av folkesett stad	del av befolket sted	section of populated place	Dei sameinte arabiske emirata	De forente arabiske emirater	United Arab Emirates	0	25.78945	55.97665	20	Ras_al-Khaimah	https://api.met.no/weatherapi/locationforecast/2.0/compact?lat=25.78945&lon=55.97665
AE	Suḩaybah	Suḩaybah	Suḩaybah	290727	folkesett stad	befolket sted	populated place	Dei sameinte arabiske emirata	De forente arabiske emirater	United Arab Emirates	0	24.93877	56.15754	351	Ras_al-Khaimah	https://api.met.no/weatherapi/locationforecast/2.0/compact?lat=24.93877&lon=56.15754
AE	Sharjah	Sharjah	Sharjah	292672	regionshovudstad	regionshovedstad	regional capital	Dei sameinte arabiske emirata	De forente arabiske emirater	United Arab Emirates	543733	25.35731	55.40330	20	Sharjah	https://api.met.no/weatherapi/locationforecast/2.0/compact?lat=25.35731&lon=55.40330
AE	Khawr Fakkān	Khawr Fakkān	Khawr Fakkān	291696	by	by	city	Dei sameinte arabiske emirata	De forente arabiske emirater	United Arab Emirates	33575	25.33132	56.34199	10	Sharjah	https://api.met.no/weatherapi/locationforecast/2.0/compact?lat=25.33132&lon=56.34199
AE	Wādī Shī	Wādī Shī	Wādī Shī	290519	folkesett stad	befolket sted	populated place	Dei sameinte arabiske emirata	De forente arabiske emirater	United Arab Emirates	0	25.35000	56.31667	77	Sharjah	https://api.met.no/weatherapi/locationforecast/2.0/compact?lat=25.35000&lon=56.31667
AE	Ţarīf Kalbā	Ţarīf Kalbā	Ţarīf Kalbā	290680	folkesett stad	befolket sted	populated place	Dei sameinte arabiske emirata	De forente arabiske emirater	United Arab Emirates	0	25.06950	56.33115	30	Sharjah	https://api.met.no/weatherapi/locationforecast/2.0/compact?lat=25.06950&lon=56.33115
AE	Shīs	Shīs	Shīs	290793	folkesett stad	befolket sted	populated place	Dei sameinte arabiske emirata	De forente arabiske emirater	United Arab Emirates	0	25.29138	56.24549	365	Sharjah	https://api.met.no/weatherapi/locationforecast/2.0/compact?lat=25.29138&lon=56.24549
AE	Umm al Qaywayn	Umm al Qaywayn	Umm al Qaywayn	290594	regionshovudstad	regionshovedstad	regional capital	Dei sameinte arabiske emirata	De forente arabiske emirater	United Arab Emirates	44411	25.56473	55.55517	8	Umm_al-Qaiwain	https://api.met.no/weatherapi/locationforecast/2.0/compact?lat=25.56473&lon=55.55517
AE	Lazīmah	Lazīmah	Lazīmah	291617	del av folkesett stad	del av befolket sted	section of populated place	Dei sameinte arabiske emirata	De forente arabiske emirater	United Arab Emirates	0	25.58611	55.56333	12	Umm_al-Qaiwain	https://api.met.no/weatherapi/locationforecast/2.0/compact?lat=25.58611&lon=55.56333
AE	Falaj al Mu‘allā	Falaj al Mu‘allā	Falaj al Mu‘allā	292202	folkesett stad	befolket sted	populated place	Dei sameinte arabiske emirata	De forente arabiske emirater	United Arab Emirates	0	25.35400	55.85332	101	Umm_al-Qaiwain	https://api.met.no/weatherapi/locationforecast/2.0/compact?lat=25.35400&lon=55.85332
AE	‘Uwaynāt	‘Uwaynāt	‘Uwaynāt	292630	folkesett stad	befolket sted	populated place	Dei sameinte arabiske emirata	De forente arabiske emirater	United Arab Emirates	0	25.36585	55.85618	102	Umm_al-Qaiwain	https://api.met.no/weatherapi/locationforecast/2.0/compact?lat=25.36585&lon=55.85618
AE	Adh Dhayd	Adh Dhayd	Adh Dhayd	292953	by	by	town	Dei sameinte arabiske emirata	De forente arabiske emirater	United Arab Emirates	24716	25.28812	55.88157	114	Sharjah	https://api.met.no/weatherapi/locationforecast/2.0/compact?lat=25.28812&lon=55.88157
AF	Tay Mazār	Tay Mazār	Tay Mazār	1122431	folkesett stad	befolket sted	populated place	Afghanistan	Afghanistan	Afghanistan	0	34.70800	68.33015	2791	Vardak	https://api.met.no/weatherapi/locationforecast/2.0/compact?lat=34.70800&lon=68.33015
AF	Shāh Tamūr	Shāh Tamūr	Shāh Tamūr	1125847	folkesett stad	befolket sted	populated place	Afghanistan	Afghanistan	Afghanistan	0	34.71796	68.30362	2912	Vardak	https://api.met.no/weatherapi/locationforecast/2.0/compact?lat=34.71796&lon=68.30362
AF	Shāhī Khēl	Shāhī Khēl	Shāhī Khēl	1125976	folkesett stad	befolket sted	populated place	Afghanistan	Afghanistan	Afghanistan	0	34.41361	69.89472	1998	Nangarhar	https://api.met.no/weatherapi/locationforecast/2.0/compact?lat=34.41361&lon=69.89472
AF	Sar-e Jark	Sar-e Jark	Sar-e Jark	1127178	folkesett stad	befolket sted	populated place	Afghanistan	Afghanistan	Afghanistan	0	34.03200	67.18388	3028	Bamiyan	https://api.met.no/weatherapi/locationforecast/2.0/compact?lat=34.03200&lon=67.18388
AF	Qōl-e Mīrak	Qōl-e Mīrak	Qōl-e Mīrak	1128852	folkesett stad	befolket sted	populated place	Afghanistan	Afghanistan	Afghanistan	0	34.16143	67.43263	3155	Vardak	https://api.met.no/weatherapi/locationforecast/2.0/compact?lat=34.16143&lon=67.43263
AF	Kabul	Kabul	Kabul	1138958	Hovudstad	Hovedstad	capital	Afghanistan	Afghanistan	Afghanistan	3043532	34.52813	69.17233	1805	Kabul	https://api.met.no/weatherapi/locationforecast/2.0/compact?lat=34.52813&lon=69.17233
AF	Kandahar	Kandahar	Kandahar	1138336	regionshovudstad	regionshovedstad	regional capital	Afghanistan	Afghanistan	Afghanistan	391190	31.61332	65.71013	1010	Kandahar	https://api.met.no/weatherapi/locationforecast/2.0/compact?lat=31.61332&lon=65.71013
AF	Mazar-e Sharif	Mazar-e Sharif	Mazari Sharif	1133616	regionshovudstad	regionshovedstad	regional capital	Afghanistan	Afghanistan	Afghanistan	303282	36.70904	67.11087	357	Balkh	https://api.met.no/weatherapi/locationforecast/2.0/compact?lat=36.70904&lon=67.11087
AF	Herat	Herat	Herat	1140026	regionshovudstad	regionshovedstad	regional capital	Afghanistan	Afghanistan	Afghanistan	272806	34.34817	62.19967	931	Herat	https://api.met.no/weatherapi/locationforecast/2.0/compact?lat=34.34817&lon=62.19967
AF	Jalalabad	Jalalabad	Jalalabad	1139715	regionshovudstad	regionshovedstad	regional capital	Afghanistan	Afghanistan	Afghanistan	200331	34.42647	70.45153	573	Nangarhar	https://api.met.no/weatherapi/locationforecast/2.0/compact?lat=34.42647&lon=70.45153
AF	Fayzabad	Fayzabad	Fayzabad	1142170	regionshovudstad	regionshovedstad	regional capital	Afghanistan	Afghanistan	Afghanistan	44421	37.11664	70.58002	1225	Badakhshan	https://api.met.no/weatherapi/locationforecast/2.0/compact?lat=37.11664&lon=70.58002
AF	Ashkāsham	Ashkāsham	Ashkāsham	1148268	by	by	town	Afghanistan	Afghanistan	Afghanistan	12120	36.68333	71.53333	3037	Badakhshan	https://api.met.no/weatherapi/locationforecast/2.0/compact?lat=36.68333&lon=71.53333
AF	Jarm	Jarm	Jarm	1139085	by	by	town	Afghanistan	Afghanistan	Afghanistan	12106	36.86477	70.83421	1525	Badakhshan	https://api.met.no/weatherapi/locationforecast/2.0/compact?lat=36.86477&lon=70.83421
AF	Khandūd	Khandūd	Khandūd	1137148	folkesett stad	befolket sted	populated place	Afghanistan	Afghanistan	Afghanistan	5521	36.95127	72.31800	2757	Badakhshan	https://api.met.no/weatherapi/locationforecast/2.0/compact?lat=36.95127&lon=72.31800
AF	Bozai Gumbaz	Bozai Gumbaz	Bozai Gumbaz	1120495	liten stad	lite sted	locality	Afghanistan	Afghanistan	Afghanistan	0	37.13333	74.00000	3996	Badakhshan	https://api.met.no/weatherapi/locationforecast/2.0/compact?lat=37.13333&lon=74.00000
AF	Zīārat-e Majnōn Bayd	Zīārat-e Majnōn Bayd	Zīārat-e Majnōn Bayd	1120629	folkesett stad	befolket sted	populated place	Afghanistan	Afghanistan	Afghanistan	0	35.55422	63.80866	1098	Badghis	https://api.met.no/weatherapi/locationforecast/2.0/compact?lat=35.55422&lon=63.80866
AF	Zighand Jow	Zighand Jow	Zighand Jow	1120733	folkesett stad	befolket sted	populated place	Afghanistan	Afghanistan	Afghanistan	0	35.11137	64.66089	1980	Badghis	https://api.met.no/weatherapi/locationforecast/2.0/compact?lat=35.11137&lon=64.66089
AF	Zayshī	Zayshī	Zayshī	1120744	folkesett stad	befolket sted	populated place	Afghanistan	Afghanistan	Afghanistan	0	34.80729	63.17486	1654	Badghis	https://api.met.no/weatherapi/locationforecast/2.0/compact?lat=34.80729&lon=63.17486
AF	Zaysalekh	Zaysalekh	Zaysalekh	1120745	folkesett stad	befolket sted	populated place	Afghanistan	Afghanistan	Afghanistan	0	34.82637	63.41157	1305	Badghis	https://api.met.no/weatherapi/locationforecast/2.0/compact?lat=34.82637&lon=63.41157
AF	Zay Murād	Zay Murād	Zay Murād	1120748	folkesett stad	befolket sted	populated place	Afghanistan	Afghanistan	Afghanistan	0	34.87487	62.97518	1257	Badghis	https://api.met.no/weatherapi/locationforecast/2.0/compact?lat=34.87487&lon=62.97518
AF	Baghlān	Baghlān	Baghlan	1147540	by	by	city	Afghanistan	Afghanistan	Afghanistan	108449	36.13068	68.70829	552	Baghlan	https://api.met.no/weatherapi/locationforecast/2.0/compact?lat=36.13068&lon=68.70829
AF	Pul-e Khumrī	Pul-e Khumrī	Pul-e Khumrī	1130490	regionshovudstad	regionshovedstad	regional capital	Afghanistan	Afghanistan	Afghanistan	56369	35.94458	68.71512	684	Baghlan	https://api.met.no/weatherapi/locationforecast/2.0/compact?lat=35.94458&lon=68.71512
AF	Nahrīn	Nahrīn	Nahrīn	1132495	by	by	town	Afghanistan	Afghanistan	Afghanistan	22363	36.06490	69.13343	1156	Baghlan	https://api.met.no/weatherapi/locationforecast/2.0/compact?lat=36.06490&lon=69.13343
AF	Ḩukūmatī Dahānah-ye Ghōrī	Ḩukūmatī Dahānah-ye Ghōrī	Ḩukūmatī Dahānah-ye Ghōrī	1144559	folkesett stad	befolket sted	populated place	Afghanistan	Afghanistan	Afghanistan	3307	35.90617	68.48869	779	Baghlan	https://api.met.no/weatherapi/locationforecast/2.0/compact?lat=35.90617&lon=68.48869
AF	Z̄ūlfaqār	Z̄ūlfaqār	Z̄ūlfaqār	1120518	folkesett stad	befolket sted	populated place	Afghanistan	Afghanistan	Afghanistan	0	35.61678	68.67031	813	Baghlan	https://api.met.no/weatherapi/locationforecast/2.0/compact?lat=35.61678&lon=68.67031
AF	Panjāb	Panjāb	Panjāb	1131162	by	by	town	Afghanistan	Afghanistan	Afghanistan	13471	34.38795	67.02327	2707	Bamiyan	https://api.met.no/weatherapi/locationforecast/2.0/compact?lat=34.38795&lon=67.02327
AF	Kōtkaī	Kōtkaī	Kōtkaī	1120480	folkesett stad	befolket sted	populated place	Afghanistan	Afghanistan	Afghanistan	0	34.46212	66.95955	2891	Bamiyan	https://api.met.no/weatherapi/locationforecast/2.0/compact?lat=34.46212&lon=66.95955
AF	Zūlij	Zūlij	Zūlij	1120526	folkesett stad	befolket sted	populated place	Afghanistan	Afghanistan	Afghanistan	0	34.87944	66.51013	2796	Bamiyan	https://api.met.no/weatherapi/locationforecast/2.0/compact?lat=34.87944&lon=66.51013
AF	Zīr Qal‘ah	Zīr Qal‘ah	Zīr Qal‘ah	1120574	folkesett stad	befolket sted	populated place	Afghanistan	Afghanistan	Afghanistan	0	34.21222	66.94028	2472	Bamiyan	https://api.met.no/weatherapi/locationforecast/2.0/compact?lat=34.21222&lon=66.94028
AF	Ziarat	Ziarat	Ziarat	1120646	folkesett stad	befolket sted	populated place	Afghanistan	Afghanistan	Afghanistan	0	34.64361	67.09667	2981	Bamiyan	https://api.met.no/weatherapi/locationforecast/2.0/compact?lat=34.64361&lon=67.09667
AF	Bāmyān	Bāmyān	Bāmyān	1147242	regionshovudstad	regionshovedstad	regional capital	Afghanistan	Afghanistan	Afghanistan	0	34.82417	67.82167	2508	Bamiyan	https://api.met.no/weatherapi/locationforecast/2.0/compact?lat=34.82417&lon=67.82167
AF	Bāmyān	Bāmyān	Bāmyān	1147242	regionshovudstad	regionshovedstad	regional capital	Afghanistan	Afghanistan	Afghanistan	0	34.82417	67.82167	2508	Bamiyan	https://api.met.no/weatherapi/locationforecast/2.0/compact?lat=34.82417&lon=67.82167
AF	Farāh	Farāh	Farāh	1142264	regionshovudstad	regionshovedstad	regional capital	Afghanistan	Afghanistan	Afghanistan	43561	32.37451	62.11638	653	Farah	https://api.met.no/weatherapi/locationforecast/2.0/compact?lat=32.37451&lon=62.11638
AF	Anār Darah	Anār Darah	Anār Darah	1148709	by	by	town	Afghanistan	Afghanistan	Afghanistan	10023	32.75870	61.65397	801	Farah	https://api.met.no/weatherapi/locationforecast/2.0/compact?lat=32.75870&lon=61.65397
AF	Kshatah Kalā	Kshatah Kalā	Kshatah Kalā	1120475	folkesett stad	befolket sted	populated place	Afghanistan	Afghanistan	Afghanistan	0	32.24356	62.45807	756	Farah	https://api.met.no/weatherapi/locationforecast/2.0/compact?lat=32.24356&lon=62.45807
AF	Gulōgah	Gulōgah	Gulōgah	1120492	folkesett stad	befolket sted	populated place	Afghanistan	Afghanistan	Afghanistan	0	33.35253	61.25078	837	Farah	https://api.met.no/weatherapi/locationforecast/2.0/compact?lat=33.35253&lon=61.25078
AF	Zīrah	Zīrah	Zīrah	1120595	folkesett stad	befolket sted	populated place	Afghanistan	Afghanistan	Afghanistan	0	33.03086	63.84777	1717	Farah	https://api.met.no/weatherapi/locationforecast/2.0/compact?lat=33.03086&lon=63.84777
AF	Andkhōy	Andkhōy	Andkhōy	1148658	by	by	town	Afghanistan	Afghanistan	Afghanistan	29208	36.95293	65.12376	319	Faryab	https://api.met.no/weatherapi/locationforecast/2.0/compact?lat=36.95293&lon=65.12376
AF	Lāsh	Lāsh	Lāsh	1120484	folkesett stad	befolket sted	populated place	Afghanistan	Afghanistan	Afghanistan	0	35.37820	64.77457	1976	Faryab	https://api.met.no/weatherapi/locationforecast/2.0/compact?lat=35.37820&lon=64.77457
AF	Khvosh Bāy	Khvosh Bāy	Khvosh Bāy	1120485	folkesett stad	befolket sted	populated place	Afghanistan	Afghanistan	Afghanistan	0	35.50000	64.36667	2183	Faryab	https://api.met.no/weatherapi/locationforecast/2.0/compact?lat=35.50000&lon=64.36667
AF	Zō-ye Rujī	Zō-ye Rujī	Zō-ye Rujī	1120538	folkesett stad	befolket sted	populated place	Afghanistan	Afghanistan	Afghanistan	0	36.18889	64.97694	1090	Faryab	https://api.met.no/weatherapi/locationforecast/2.0/compact?lat=36.18889&lon=64.97694
AF	Z̧ulmahābād	Z̧ulmahābād	Z̧ulmahābād	1120550	folkesett stad	befolket sted	populated place	Afghanistan	Afghanistan	Afghanistan	0	35.97344	64.73849	812	Faryab	https://api.met.no/weatherapi/locationforecast/2.0/compact?lat=35.97344&lon=64.73849
AF	Meymaneh	Meymaneh	Maymana	1133453	regionshovudstad	regionshovedstad	regional capital	Afghanistan	Afghanistan	Afghanistan	75900	35.92139	64.78361	877	Faryab	https://api.met.no/weatherapi/locationforecast/2.0/compact?lat=35.92139&lon=64.78361
AF	Meymaneh	Meymaneh	Maymana	1133453	regionshovudstad	regionshovedstad	regional capital	Afghanistan	Afghanistan	Afghanistan	75900	35.92139	64.78361	877	Faryab	https://api.met.no/weatherapi/locationforecast/2.0/compact?lat=35.92139&lon=64.78361
AF	Jang `Alī	Jang `Alī	Jang `Alī	1120489	folkesett stad	befolket sted	populated place	Afghanistan	Afghanistan	Afghanistan	0	33.98333	68.43333	2866	Ghazni	https://api.met.no/weatherapi/locationforecast/2.0/compact?lat=33.98333&lon=68.43333
AF	Shalgar	Shalgar	Shalgar	1120500	folkesett stad	befolket sted	populated place	Afghanistan	Afghanistan	Afghanistan	0	33.32361	68.43944	2075	Ghazni	https://api.met.no/weatherapi/locationforecast/2.0/compact?lat=33.32361&lon=68.43944
AF	Ziwadz	Ziwadz	Ziwadz	1120571	folkesett stad	befolket sted	populated place	Afghanistan	Afghanistan	Afghanistan	0	33.43167	68.49361	2117	Ghazni	https://api.met.no/weatherapi/locationforecast/2.0/compact?lat=33.43167&lon=68.49361
AF	Zīārat	Zīārat	Zīārat	1120647	folkesett stad	befolket sted	populated place	Afghanistan	Afghanistan	Afghanistan	0	32.15567	67.69071	2184	Zabol	https://api.met.no/weatherapi/locationforecast/2.0/compact?lat=32.15567&lon=67.69071
AF	Zelzelah	Zelzelah	Zelzelah	1120720	folkesett stad	befolket sted	populated place	Afghanistan	Afghanistan	Afghanistan	0	33.45667	68.36361	2173	Ghazni	https://api.met.no/weatherapi/locationforecast/2.0/compact?lat=33.45667&lon=68.36361
AF	Ghazni	Ghazni	Ghazni	1141269	regionshovudstad	regionshovedstad	regional capital	Afghanistan	Afghanistan	Afghanistan	141000	33.55356	68.42689	2175	Ghazni	https://api.met.no/weatherapi/locationforecast/2.0/compact?lat=33.55356&lon=68.42689
AF	Ghazni	Ghazni	Ghazni	1141269	regionshovudstad	regionshovedstad	regional capital	Afghanistan	Afghanistan	Afghanistan	141000	33.55356	68.42689	2175	Ghazni	https://api.met.no/weatherapi/locationforecast/2.0/compact?lat=33.55356&lon=68.42689
AF	Shahrak	Shahrak	Shahrak	1125896	by	by	town	Afghanistan	Afghanistan	Afghanistan	15967	34.10738	64.30520	2393	Ghowr	https://api.met.no/weatherapi/locationforecast/2.0/compact?lat=34.10738&lon=64.30520
AF	Kūshk	Kūshk	Kūshk	1120474	folkesett stad	befolket sted	populated place	Afghanistan	Afghanistan	Afghanistan	0	34.85000	65.90000	3511	Ghowr	https://api.met.no/weatherapi/locationforecast/2.0/compact?lat=34.85000&lon=65.90000
AF	Zuzi	Zuzi	Zuzi	1120504	folkesett stad	befolket sted	populated place	Afghanistan	Afghanistan	Afghanistan	0	33.45770	65.17130	2018	Ghowr	https://api.met.no/weatherapi/locationforecast/2.0/compact?lat=33.45770&lon=65.17130
AF	Zūrnī	Zūrnī	Zūrnī	1120509	folkesett stad	befolket sted	populated place	Afghanistan	Afghanistan	Afghanistan	0	33.56899	63.28932	2108	Ghowr	https://api.met.no/weatherapi/locationforecast/2.0/compact?lat=33.56899&lon=63.28932
AF	Zūl Girdāb	Zūl Girdāb	Zūl Girdāb	1120523	folkesett stad	befolket sted	populated place	Afghanistan	Afghanistan	Afghanistan	0	33.40322	63.40351	1427	Ghowr	https://api.met.no/weatherapi/locationforecast/2.0/compact?lat=33.40322&lon=63.40351
AF	Chaghcharān	Chaghcharān	Chaghcharān	1145904	regionshovudstad	regionshovedstad	regional capital	Afghanistan	Afghanistan	Afghanistan	0	34.51952	65.25094	2269	Ghowr	https://api.met.no/weatherapi/locationforecast/2.0/compact?lat=34.51952&lon=65.25094
AF	Chaghcharān	Chaghcharān	Chaghcharān	1145904	regionshovudstad	regionshovedstad	regional capital	Afghanistan	Afghanistan	Afghanistan	0	34.51952	65.25094	2269	Ghowr	https://api.met.no/weatherapi/locationforecast/2.0/compact?lat=34.51952&lon=65.25094
AF	Lashkar Gāh	Lashkar Gāh	Lashkar Gah	1134720	regionshovudstad	regionshovedstad	regional capital	Afghanistan	Afghanistan	Afghanistan	43934	31.59382	64.37161	785	Helmand	https://api.met.no/weatherapi/locationforecast/2.0/compact?lat=31.59382&lon=64.37161
AF	Gereshk	Gereshk	Gereshk	1141540	by	by	city	Afghanistan	Afghanistan	Afghanistan	43588	31.82089	64.57005	823	Helmand	https://api.met.no/weatherapi/locationforecast/2.0/compact?lat=31.82089&lon=64.57005
AF	Sangīn	Sangīn	Sangīn	1127547	by	by	town	Afghanistan	Afghanistan	Afghanistan	13579	32.07275	64.83590	892	Helmand	https://api.met.no/weatherapi/locationforecast/2.0/compact?lat=32.07275&lon=64.83590
AF	‘Alāqahdārī Deh-e Shū	‘Alāqahdārī Deh-e Shū	‘Alāqahdārī Deh-e Shū	1149052	folkesett stad	befolket sted	populated place	Afghanistan	Afghanistan	Afghanistan	9196	30.43741	63.31298	594	Helmand	https://api.met.no/weatherapi/locationforecast/2.0/compact?lat=30.43741&lon=63.31298
AF	Markaz-e Ḩukūmat-e Darwēshān	Markaz-e Ḩukūmat-e Darwēshān	Markaz-e Ḩukūmat-e Darwēshān	1143901	folkesett stad	befolket sted	populated place	Afghanistan	Afghanistan	Afghanistan	9012	31.13232	64.19340	719	Helmand	https://api.met.no/weatherapi/locationforecast/2.0/compact?lat=31.13232&lon=64.19340
AF	Herat	Herat	Herat	1140026	regionshovudstad	regionshovedstad	regional capital	Afghanistan	Afghanistan	Afghanistan	272806	34.34817	62.19967	931	Herat	https://api.met.no/weatherapi/locationforecast/2.0/compact?lat=34.34817&lon=62.19967
AF	Shīnḏanḏ	Shīnḏanḏ	Shīnḏanḏ	1125155	by	by	town	Afghanistan	Afghanistan	Afghanistan	29264	33.30294	62.14740	1066	Herat	https://api.met.no/weatherapi/locationforecast/2.0/compact?lat=33.30294&lon=62.14740
AF	Kafir Qala	Kafir Qala	Kafir Qala	1142404	by	by	town	Afghanistan	Afghanistan	Afghanistan	18086	34.66667	61.06667	721	Herat	https://api.met.no/weatherapi/locationforecast/2.0/compact?lat=34.66667&lon=61.06667
AF	Karukh	Karukh	Karukh	1137807	by	by	town	Afghanistan	Afghanistan	Afghanistan	17484	34.48108	62.58630	1309	Herat	https://api.met.no/weatherapi/locationforecast/2.0/compact?lat=34.48108&lon=62.58630
AF	Kushk	Kushk	Kushk	1135158	by	by	town	Afghanistan	Afghanistan	Afghanistan	16952	33.29565	61.95221	1126	Herat	https://api.met.no/weatherapi/locationforecast/2.0/compact?lat=33.29565&lon=61.95221
AF	Kabul	Kabul	Kabul	1138958	Hovudstad	Hovedstad	capital	Afghanistan	Afghanistan	Afghanistan	3043532	34.52813	69.17233	1805	Kabul	https://api.met.no/weatherapi/locationforecast/2.0/compact?lat=34.52813&lon=69.17233
AF	Paghmān	Paghmān	Paghmān	1131316	by	by	city	Afghanistan	Afghanistan	Afghanistan	49157	34.58750	68.95333	2276	Kabul	https://api.met.no/weatherapi/locationforecast/2.0/compact?lat=34.58750&lon=68.95333
AF	Mīr Bachah Kōṯ	Mīr Bachah Kōṯ	Mīr Bachah Kōṯ	1133270	folkesett stad	befolket sted	populated place	Afghanistan	Afghanistan	Afghanistan	5405	34.74999	69.11899	1691	Kabul	https://api.met.no/weatherapi/locationforecast/2.0/compact?lat=34.74999&lon=69.11899
AF	Zirō Tangah	Zirō Tangah	Zirō Tangah	1120685	folkesett stad	befolket sted	populated place	Afghanistan	Afghanistan	Afghanistan	0	34.53767	69.59218	1473	Kabul	https://api.met.no/weatherapi/locationforecast/2.0/compact?lat=34.53767&lon=69.59218
AF	Z̄imah	Z̄imah	Z̄imah	1120715	folkesett stad	befolket sted	populated place	Afghanistan	Afghanistan	Afghanistan	0	34.72598	69.18996	1718	Kabul	https://api.met.no/weatherapi/locationforecast/2.0/compact?lat=34.72598&lon=69.18996
AF	Tagāb	Tagāb	Tagāb	1123424	folkesett stad	befolket sted	populated place	Afghanistan	Afghanistan	Afghanistan	6400	34.85501	69.64917	1334	Kapisa	https://api.met.no/weatherapi/locationforecast/2.0/compact?lat=34.85501&lon=69.64917
AF	Z̧ulm Khēl	Z̧ulm Khēl	Z̧ulm Khēl	1120549	folkesett stad	befolket sted	populated place	Afghanistan	Afghanistan	Afghanistan	0	35.06237	69.59683	2021	Kapisa	https://api.met.no/weatherapi/locationforecast/2.0/compact?lat=35.06237&lon=69.59683
AF	Wīshār	Wīshār	Wīshār	1121580	folkesett stad	befolket sted	populated place	Afghanistan	Afghanistan	Afghanistan	0	35.08569	69.71762	3038	Kapisa	https://api.met.no/weatherapi/locationforecast/2.0/compact?lat=35.08569&lon=69.71762
AF	Wāyār	Wāyār	Wāyār	1121653	folkesett stad	befolket sted	populated place	Afghanistan	Afghanistan	Afghanistan	0	35.03389	69.62755	1917	Kapisa	https://api.met.no/weatherapi/locationforecast/2.0/compact?lat=35.03389&lon=69.62755
AF	Warnah Gunḏah	Warnah Gunḏah	Warnah Gunḏah	1121702	folkesett stad	befolket sted	populated place	Afghanistan	Afghanistan	Afghanistan	0	34.93970	69.74859	1928	Kapisa	https://api.met.no/weatherapi/locationforecast/2.0/compact?lat=34.93970&lon=69.74859
AF	Barakī Barak	Barakī Barak	Barakī Barak	1147066	by	by	town	Afghanistan	Afghanistan	Afghanistan	22305	33.96750	68.94861	1937	Lowgar	https://api.met.no/weatherapi/locationforecast/2.0/compact?lat=33.96750&lon=68.94861
AF	Pul-e ‘Alam	Pul-e ‘Alam	Pul-e ‘Alam	1130497	regionshovudstad	regionshovedstad	regional capital	Afghanistan	Afghanistan	Afghanistan	13247	33.99529	69.02274	1931	Lowgar	https://api.met.no/weatherapi/locationforecast/2.0/compact?lat=33.99529&lon=69.02274
AF	Zinak	Zinak	Zinak	1120602	folkesett stad	befolket sted	populated place	Afghanistan	Afghanistan	Afghanistan	0	33.93833	69.37250	2845	Lowgar	https://api.met.no/weatherapi/locationforecast/2.0/compact?lat=33.93833&lon=69.37250
AF	Zāhidābād	Zāhidābād	Zāhidābād	1120681	folkesett stad	befolket sted	populated place	Afghanistan	Afghanistan	Afghanistan	0	34.27250	69.14111	1816	Lowgar	https://api.met.no/weatherapi/locationforecast/2.0/compact?lat=34.27250&lon=69.14111
AF	Zar Sang	Zar Sang	Zar Sang	1120816	folkesett stad	befolket sted	populated place	Afghanistan	Afghanistan	Afghanistan	0	33.88639	68.84000	2164	Lowgar	https://api.met.no/weatherapi/locationforecast/2.0/compact?lat=33.88639&lon=68.84000
AF	Jalalabad	Jalalabad	Jalalabad	1139715	regionshovudstad	regionshovedstad	regional capital	Afghanistan	Afghanistan	Afghanistan	200331	34.42647	70.45153	573	Nangarhar	https://api.met.no/weatherapi/locationforecast/2.0/compact?lat=34.42647&lon=70.45153
AF	Markaz-e Woluswalī-ye Āchīn	Markaz-e Woluswalī-ye Āchīn	Markaz-e Woluswalī-ye Āchīn	1469706	by	by	town	Afghanistan	Afghanistan	Afghanistan	15098	34.12583	70.70778	948	Nangarhar	https://api.met.no/weatherapi/locationforecast/2.0/compact?lat=34.12583&lon=70.70778
AF	Bāsawul	Bāsawul	Bāsawul	1146822	folkesett stad	befolket sted	populated place	Afghanistan	Afghanistan	Afghanistan	6835	34.24749	70.87218	461	Nangarhar	https://api.met.no/weatherapi/locationforecast/2.0/compact?lat=34.24749&lon=70.87218
AF	Bati	Bati	Bati	1120497	folkesett stad	befolket sted	populated place	Afghanistan	Afghanistan	Afghanistan	0	34.24563	70.72738	567	Nangarhar	https://api.met.no/weatherapi/locationforecast/2.0/compact?lat=34.24563&lon=70.72738
AF	Zor-Bazar	Zor-Bazar	Zor-Bazar	1120512	folkesett stad	befolket sted	populated place	Afghanistan	Afghanistan	Afghanistan	0	34.26352	70.18012	1198	Nangarhar	https://api.met.no/weatherapi/locationforecast/2.0/compact?lat=34.26352&lon=70.18012
AF	Khāsh	Khāsh	Khāsh	1136863	by	by	town	Afghanistan	Afghanistan	Afghanistan	15133	31.52919	62.79055	578	Nimruz	https://api.met.no/weatherapi/locationforecast/2.0/compact?lat=31.52919&lon=62.79055
AF	Mīrābād	Mīrābād	Mīrābād	1133310	by	by	town	Afghanistan	Afghanistan	Afghanistan	14160	30.43624	61.83830	499	Nimruz	https://api.met.no/weatherapi/locationforecast/2.0/compact?lat=30.43624&lon=61.83830
AF	Rūdbār	Rūdbār	Rūdbār	1128239	by	by	town	Afghanistan	Afghanistan	Afghanistan	11034	30.15000	62.60000	573	Nimruz	https://api.met.no/weatherapi/locationforecast/2.0/compact?lat=30.15000&lon=62.60000
AF	Zīārat-e Amīrān Şāḩeb	Zīārat-e Amīrān Şāḩeb	Zīārat-e Amīrān Şāḩeb	1120635	folkesett stad	befolket sted	populated place	Afghanistan	Afghanistan	Afghanistan	0	30.96667	62.11667	476	Nimruz	https://api.met.no/weatherapi/locationforecast/2.0/compact?lat=30.96667&lon=62.11667
AF	Zaranj	Zaranj	Zaranj	1120985	regionshovudstad	regionshovedstad	regional capital	Afghanistan	Afghanistan	Afghanistan	0	30.96667	61.88333	483	Nimruz	https://api.met.no/weatherapi/locationforecast/2.0/compact?lat=30.96667&lon=61.88333
AF	Kandahar	Kandahar	Kandahar	1138336	regionshovudstad	regionshovedstad	regional capital	Afghanistan	Afghanistan	Afghanistan	391190	31.61332	65.71013	1010	Kandahar	https://api.met.no/weatherapi/locationforecast/2.0/compact?lat=31.61332&lon=65.71013
AF	Kōykak	Kōykak	Kōykak	1120486	folkesett stad	befolket sted	populated place	Afghanistan	Afghanistan	Afghanistan	0	31.58535	64.84258	845	Kandahar	https://api.met.no/weatherapi/locationforecast/2.0/compact?lat=31.58535&lon=64.84258
AF	Bāzār-e Panjwā’ī	Bāzār-e Panjwā’ī	Bāzār-e Panjwā’ī	1120496	folkesett stad	befolket sted	populated place	Afghanistan	Afghanistan	Afghanistan	0	31.54622	65.46000	951	Kandahar	https://api.met.no/weatherapi/locationforecast/2.0/compact?lat=31.54622&lon=65.46000
AF	Zōr Kārēz	Zōr Kārēz	Zōr Kārēz	1120539	folkesett stad	befolket sted	populated place	Afghanistan	Afghanistan	Afghanistan	0	31.28417	67.61592	2157	Kandahar	https://api.met.no/weatherapi/locationforecast/2.0/compact?lat=31.28417&lon=67.61592
AF	Kunduz	Kunduz	Kunduz	1135689	regionshovudstad	regionshovedstad	regional capital	Afghanistan	Afghanistan	Afghanistan	161902	36.72896	68.85700	391	Kunduz	https://api.met.no/weatherapi/locationforecast/2.0/compact?lat=36.72896&lon=68.85700
AF	Khanabad	Khanabad	Khanabad	1137168	by	by	city	Afghanistan	Afghanistan	Afghanistan	71531	36.68250	69.11556	490	Kunduz	https://api.met.no/weatherapi/locationforecast/2.0/compact?lat=36.68250&lon=69.11556
AF	Qarāwul	Qarāwul	Qarāwul	1129648	by	by	town	Afghanistan	Afghanistan	Afghanistan	24544	37.22019	68.78041	327	Kunduz	https://api.met.no/weatherapi/locationforecast/2.0/compact?lat=37.22019&lon=68.78041
AF	Imām Şāḩib	Imām Şāḩib	Imām Şāḩib	1142545	folkesett stad	befolket sted	populated place	Afghanistan	Afghanistan	Afghanistan	9659	37.18897	68.93644	339	Kunduz	https://api.met.no/weatherapi/locationforecast/2.0/compact?lat=37.18897&lon=68.93644
AF	Dasht-e Archī	Dasht-e Archī	Dasht-e Archī	1143838	folkesett stad	befolket sted	populated place	Afghanistan	Afghanistan	Afghanistan	8263	37.13333	69.16667	372	Kunduz	https://api.met.no/weatherapi/locationforecast/2.0/compact?lat=37.13333&lon=69.16667
AF	Taloqan	Taloqan	Taloqan	1123004	regionshovudstad	regionshovedstad	regional capital	Afghanistan	Afghanistan	Afghanistan	64256	36.73605	69.53451	788	Takhar	https://api.met.no/weatherapi/locationforecast/2.0/compact?lat=36.73605&lon=69.53451
AF	Rustāq	Rustāq	Rustāq	1128265	by	by	town	Afghanistan	Afghanistan	Afghanistan	25636	37.12604	69.83045	1323	Takhar	https://api.met.no/weatherapi/locationforecast/2.0/compact?lat=37.12604&lon=69.83045
AF	Ārt Khwājah	Ārt Khwājah	Ārt Khwājah	1148106	by	by	town	Afghanistan	Afghanistan	Afghanistan	18623	37.08571	69.47958	474	Takhar	https://api.met.no/weatherapi/locationforecast/2.0/compact?lat=37.08571&lon=69.47958
AF	Farkhār	Farkhār	Farkhār	1142239	by	by	town	Afghanistan	Afghanistan	Afghanistan	10480	36.57288	69.85783	1135	Takhar	https://api.met.no/weatherapi/locationforecast/2.0/compact?lat=36.57288&lon=69.85783
AF	Yangī Qal‘ah	Yangī Qal‘ah	Yangī Qal‘ah	1121271	folkesett stad	befolket sted	populated place	Afghanistan	Afghanistan	Afghanistan	6541	37.46572	69.61131	496	Takhar	https://api.met.no/weatherapi/locationforecast/2.0/compact?lat=37.46572&lon=69.61131
AF	Woluswālī Behsūd	Woluswālī Behsūd	Woluswālī Behsūd	1120473	folkesett stad	befolket sted	populated place	Afghanistan	Afghanistan	Afghanistan	0	34.34528	67.90639	2935	Vardak	https://api.met.no/weatherapi/locationforecast/2.0/compact?lat=34.34528&lon=67.90639
AF	Kōṯah-ye ‘As̲h̲rō	Kōṯah-ye ‘As̲h̲rō	Kōṯah-ye ‘As̲h̲rō	1120482	folkesett stad	befolket sted	populated place	Afghanistan	Afghanistan	Afghanistan	0	34.44833	68.79472	2221	Vardak	https://api.met.no/weatherapi/locationforecast/2.0/compact?lat=34.44833&lon=68.79472
AF	Z̄ūlfaqār Khēl	Z̄ūlfaqār Khēl	Z̄ūlfaqār Khēl	1120519	folkesett stad	befolket sted	populated place	Afghanistan	Afghanistan	Afghanistan	0	34.15750	68.50139	2277	Vardak	https://api.met.no/weatherapi/locationforecast/2.0/compact?lat=34.15750&lon=68.50139
AF	Zīāratak	Zīāratak	Zīāratak	1120636	folkesett stad	befolket sted	populated place	Afghanistan	Afghanistan	Afghanistan	0	34.57080	67.70483	3088	Vardak	https://api.met.no/weatherapi/locationforecast/2.0/compact?lat=34.57080&lon=67.70483
AF	Maīdān Shahr	Maīdān Shahr	Maīdān Shahr	1456960	regionshovudstad	regionshovedstad	regional capital	Afghanistan	Afghanistan	Afghanistan	1600	34.39561	68.86618	2176	Vardak	https://api.met.no/weatherapi/locationforecast/2.0/compact?lat=34.39561&lon=68.86618
AF	Maīdān Shahr	Maīdān Shahr	Maīdān Shahr	1456960	regionshovudstad	regionshovedstad	regional capital	Afghanistan	Afghanistan	Afghanistan	1600	34.39561	68.86618	2176	Vardak	https://api.met.no/weatherapi/locationforecast/2.0/compact?lat=34.39561&lon=68.86618
AF	Qalāt	Qalāt	Qalāt	1130131	regionshovudstad	regionshovedstad	regional capital	Afghanistan	Afghanistan	Afghanistan	12191	32.10575	66.90833	1558	Zabol	https://api.met.no/weatherapi/locationforecast/2.0/compact?lat=32.10575&lon=66.90833
AF	Kārēz	Kārēz	Kārēz	1120472	folkesett stad	befolket sted	populated place	Afghanistan	Afghanistan	Afghanistan	0	31.96944	67.86276	2429	Zabol	https://api.met.no/weatherapi/locationforecast/2.0/compact?lat=31.96944&lon=67.86276
AF	Ks̲h̲êtah Kêlay	Ks̲h̲êtah Kêlay	Ks̲h̲êtah Kêlay	1120476	folkesett stad	befolket sted	populated place	Afghanistan	Afghanistan	Afghanistan	0	32.08834	67.69244	2176	Zabol	https://api.met.no/weatherapi/locationforecast/2.0/compact?lat=32.08834&lon=67.69244
AF	Gumbad	Gumbad	Gumbad	1120490	folkesett stad	befolket sted	populated place	Afghanistan	Afghanistan	Afghanistan	0	32.18220	66.42856	1331	Zabol	https://api.met.no/weatherapi/locationforecast/2.0/compact?lat=32.18220&lon=66.42856
AF	Zēṟ Sang Kêlay	Zēṟ Sang Kêlay	Zēṟ Sang Kêlay	1120573	folkesett stad	befolket sted	populated place	Afghanistan	Afghanistan	Afghanistan	0	32.72044	66.77124	2581	Zabol	https://api.met.no/weatherapi/locationforecast/2.0/compact?lat=32.72044&lon=66.77124
AF	Zarghūn Shahr	Zarghūn Shahr	Zarghūn Shahr	1120863	by	by	town	Afghanistan	Afghanistan	Afghanistan	13737	32.84734	68.44573	2114	Paktika	https://api.met.no/weatherapi/locationforecast/2.0/compact?lat=32.84734&lon=68.44573
AF	Zaṟah Sharan	Zaṟah Sharan	Zaṟah Sharan	1120879	folkesett stad	befolket sted	populated place	Afghanistan	Afghanistan	Afghanistan	7366	33.14667	68.79167	2141	Paktika	https://api.met.no/weatherapi/locationforecast/2.0/compact?lat=33.14667&lon=68.79167
AF	Kōṯwāl	Kōṯwāl	Kōṯwāl	1120477	folkesett stad	befolket sted	populated place	Afghanistan	Afghanistan	Afghanistan	0	33.14611	68.75583	2128	Paktika	https://api.met.no/weatherapi/locationforecast/2.0/compact?lat=33.14611&lon=68.75583
AF	Zūtnī Khēl	Zūtnī Khēl	Zūtnī Khēl	1120505	folkesett stad	befolket sted	populated place	Afghanistan	Afghanistan	Afghanistan	0	33.36048	68.97386	2119	Paktia	https://api.met.no/weatherapi/locationforecast/2.0/compact?lat=33.36048&lon=68.97386
AF	Zōṟ Khalatah	Zōṟ Khalatah	Zōṟ Khalatah	1120545	folkesett stad	befolket sted	populated place	Afghanistan	Afghanistan	Afghanistan	0	32.87223	68.54964	2090	Paktika	https://api.met.no/weatherapi/locationforecast/2.0/compact?lat=32.87223&lon=68.54964
AF	Mazar-e Sharif	Mazar-e Sharif	Mazari Sharif	1133616	regionshovudstad	regionshovedstad	regional capital	Afghanistan	Afghanistan	Afghanistan	303282	36.70904	67.11087	357	Balkh	https://api.met.no/weatherapi/locationforecast/2.0/compact?lat=36.70904&lon=67.11087
AF	Balkh	Balkh	Balkh	1147290	by	by	city	Afghanistan	Afghanistan	Afghanistan	114883	36.75635	66.89720	334	Balkh	https://api.met.no/weatherapi/locationforecast/2.0/compact?lat=36.75635&lon=66.89720
AF	Khulm	Khulm	Khulm	1136575	by	by	city	Afghanistan	Afghanistan	Afghanistan	64933	36.69736	67.69826	460	Balkh	https://api.met.no/weatherapi/locationforecast/2.0/compact?lat=36.69736&lon=67.69826
AF	Qarchī Gak	Qarchī Gak	Qarchī Gak	1129636	folkesett stad	befolket sted	populated place	Afghanistan	Afghanistan	Afghanistan	8942	37.03999	66.78891	298	Balkh	https://api.met.no/weatherapi/locationforecast/2.0/compact?lat=37.03999&lon=66.78891
AF	Zuzan	Zuzan	Zuzan	1120537	folkesett stad	befolket sted	populated place	Afghanistan	Afghanistan	Afghanistan	0	36.76956	66.94828	322	Balkh	https://api.met.no/weatherapi/locationforecast/2.0/compact?lat=36.76956&lon=66.94828
AF	Shibirghān	Shibirghān	Shibirghān	1125444	regionshovudstad	regionshovedstad	regional capital	Afghanistan	Afghanistan	Afghanistan	55641	36.66757	65.75290	362	Jowzjan	https://api.met.no/weatherapi/locationforecast/2.0/compact?lat=36.66757&lon=65.75290
AF	Qarqīn	Qarqīn	Qarqīn	1129516	by	by	town	Afghanistan	Afghanistan	Afghanistan	15018	37.41853	66.04358	252	Jowzjan	https://api.met.no/weatherapi/locationforecast/2.0/compact?lat=37.41853&lon=66.04358
AF	Larkird	Larkird	Larkird	1134762	by	by	town	Afghanistan	Afghanistan	Afghanistan	11635	35.48936	66.66409	1867	Sar-e_Pol	https://api.met.no/weatherapi/locationforecast/2.0/compact?lat=35.48936&lon=66.66409
AF	Zow	Zow	Zow	1120791	folkesett stad	befolket sted	populated place	Afghanistan	Afghanistan	Afghanistan	0	35.42769	66.69422	2453	Sar-e_Pol	https://api.met.no/weatherapi/locationforecast/2.0/compact?lat=35.42769&lon=66.69422
AF	Z̄aghdalah	Z̄aghdalah	Z̄aghdalah	1121119	folkesett stad	befolket sted	populated place	Afghanistan	Afghanistan	Afghanistan	0	36.49266	65.80674	421	Jowzjan	https://api.met.no/weatherapi/locationforecast/2.0/compact?lat=36.49266&lon=65.80674
AF	Aībak	Aībak	Aībak	1127768	regionshovudstad	regionshovedstad	regional capital	Afghanistan	Afghanistan	Afghanistan	47823	36.26468	68.01551	960	Samangan	https://api.met.no/weatherapi/locationforecast/2.0/compact?lat=36.26468&lon=68.01551
AF	Zīrakī	Zīrakī	Zīrakī	1120592	folkesett stad	befolket sted	populated place	Afghanistan	Afghanistan	Afghanistan	0	35.96622	67.50288	1969	Samangan	https://api.met.no/weatherapi/locationforecast/2.0/compact?lat=35.96622&lon=67.50288
AF	Zayrakī	Zayrakī	Zayrakī	1120706	folkesett stad	befolket sted	populated place	Afghanistan	Afghanistan	Afghanistan	0	35.80693	67.28915	1588	Samangan	https://api.met.no/weatherapi/locationforecast/2.0/compact?lat=35.80693&lon=67.28915
AF	Zaydurī	Zaydurī	Zaydurī	1120760	folkesett stad	befolket sted	populated place	Afghanistan	Afghanistan	Afghanistan	0	35.86330	67.47042	2086	Samangan	https://api.met.no/weatherapi/locationforecast/2.0/compact?lat=35.86330&lon=67.47042
AF	Zowārā	Zowārā	Zowārā	1120781	folkesett stad	befolket sted	populated place	Afghanistan	Afghanistan	Afghanistan	0	35.89823	68.30412	2646	Samangan	https://api.met.no/weatherapi/locationforecast/2.0/compact?lat=35.89823&lon=68.30412
AF	Sar-e Pul	Sar-e Pul	Sar-e Pul	1127110	regionshovudstad	regionshovedstad	regional capital	Afghanistan	Afghanistan	Afghanistan	52121	36.21544	65.93249	622	Sar-e_Pol	https://api.met.no/weatherapi/locationforecast/2.0/compact?lat=36.21544&lon=65.93249
AF	Sang-e Chārak	Sang-e Chārak	Sang-e Chārak	1127628	by	by	town	Afghanistan	Afghanistan	Afghanistan	15377	35.84972	66.43694	1547	Sar-e_Pol	https://api.met.no/weatherapi/locationforecast/2.0/compact?lat=35.84972&lon=66.43694
AF	Chīras	Chīras	Chīras	1144942	by	by	town	Afghanistan	Afghanistan	Afghanistan	12779	35.41674	65.98234	2828	Sar-e_Pol	https://api.met.no/weatherapi/locationforecast/2.0/compact?lat=35.41674&lon=65.98234
AF	Tukzār	Tukzār	Tukzār	1120487	by	by	town	Afghanistan	Afghanistan	Afghanistan	12021	35.94831	66.42132	1253	Sar-e_Pol	https://api.met.no/weatherapi/locationforecast/2.0/compact?lat=35.94831&lon=66.42132
AF	Darz Āb	Darz Āb	Darz Āb	1143874	folkesett stad	befolket sted	populated place	Afghanistan	Afghanistan	Afghanistan	9642	35.97744	65.37828	1224	Jowzjan	https://api.met.no/weatherapi/locationforecast/2.0/compact?lat=35.97744&lon=65.37828
AF	Āsmār	Āsmār	Āsmār	1148205	by	by	town	Afghanistan	Afghanistan	Afghanistan	15708	35.03333	71.35809	934	Konar	https://api.met.no/weatherapi/locationforecast/2.0/compact?lat=35.03333&lon=71.35809
AF	Zermandi	Zermandi	Zermandi	1120687	folkesett stad	befolket sted	populated place	Afghanistan	Afghanistan	Afghanistan	0	34.95306	71.34917	1658	Konar	https://api.met.no/weatherapi/locationforecast/2.0/compact?lat=34.95306&lon=71.34917
AF	Zawaṟḏiwuz	Zawaṟḏiwuz	Zawaṟḏiwuz	1120780	folkesett stad	befolket sted	populated place	Afghanistan	Afghanistan	Afghanistan	0	35.01735	71.08469	2333	Konar	https://api.met.no/weatherapi/locationforecast/2.0/compact?lat=35.01735&lon=71.08469
AF	Zōṟ Barawul	Zōṟ Barawul	Zōṟ Barawul	1120980	folkesett stad	befolket sted	populated place	Afghanistan	Afghanistan	Afghanistan	0	35.02879	71.50790	2090	Konar	https://api.met.no/weatherapi/locationforecast/2.0/compact?lat=35.02879&lon=71.50790
AF	Wurghālay	Wurghālay	Wurghālay	1121445	folkesett stad	befolket sted	populated place	Afghanistan	Afghanistan	Afghanistan	0	34.71410	71.11585	1774	Konar	https://api.met.no/weatherapi/locationforecast/2.0/compact?lat=34.71410&lon=71.11585
AF	Asadābād	Asadābād	Asadābād	1148311	regionshovudstad	regionshovedstad	regional capital	Afghanistan	Afghanistan	Afghanistan	0	34.87311	71.14697	831	Konar	https://api.met.no/weatherapi/locationforecast/2.0/compact?lat=34.87311&lon=71.14697
AF	Asadābād	Asadābād	Asadābād	1148311	regionshovudstad	regionshovedstad	regional capital	Afghanistan	Afghanistan	Afghanistan	0	34.87311	71.14697	831	Konar	https://api.met.no/weatherapi/locationforecast/2.0/compact?lat=34.87311&lon=71.14697
AF	Mehtar Lām	Mehtar Lām	Mehtar Lām	1133574	regionshovudstad	regionshovedstad	regional capital	Afghanistan	Afghanistan	Afghanistan	17345	34.67139	70.20944	768	Laghman	https://api.met.no/weatherapi/locationforecast/2.0/compact?lat=34.67139&lon=70.20944
AF	Zirani	Zirani	Zirani	1120587	folkesett stad	befolket sted	populated place	Afghanistan	Afghanistan	Afghanistan	0	34.51919	70.13714	673	Laghman	https://api.met.no/weatherapi/locationforecast/2.0/compact?lat=34.51919&lon=70.13714
AF	Zīārat Kêlay	Zīārat Kêlay	Zīārat Kêlay	1120632	folkesett stad	befolket sted	populated place	Afghanistan	Afghanistan	Afghanistan	0	34.73861	70.26944	803	Laghman	https://api.met.no/weatherapi/locationforecast/2.0/compact?lat=34.73861&lon=70.26944
AF	Zvane	Zvane	Zvane	1120656	folkesett stad	befolket sted	populated place	Afghanistan	Afghanistan	Afghanistan	0	35.00594	70.14087	2211	Laghman	https://api.met.no/weatherapi/locationforecast/2.0/compact?lat=35.00594&lon=70.14087
AF	Zargar Mālah	Zargar Mālah	Zargar Mālah	1120870	folkesett stad	befolket sted	populated place	Afghanistan	Afghanistan	Afghanistan	0	34.76982	70.18627	1309	Laghman	https://api.met.no/weatherapi/locationforecast/2.0/compact?lat=34.76982&lon=70.18627
AF	Gardiz	Gardiz	Gardez	1141857	regionshovudstad	regionshovedstad	regional capital	Afghanistan	Afghanistan	Afghanistan	103601	33.59744	69.22592	2294	Paktia	https://api.met.no/weatherapi/locationforecast/2.0/compact?lat=33.59744&lon=69.22592
AF	Ḩukūmatī Azrow	Ḩukūmatī Azrow	Ḩukūmatī Azrow	1147851	by	by	town	Afghanistan	Afghanistan	Afghanistan	12526	34.17355	69.64573	2270	Lowgar	https://api.met.no/weatherapi/locationforecast/2.0/compact?lat=34.17355&lon=69.64573
AF	Zurmat	Zurmat	Zurmat	1120543	folkesett stad	befolket sted	populated place	Afghanistan	Afghanistan	Afghanistan	0	33.43778	69.02774	2139	Paktia	https://api.met.no/weatherapi/locationforecast/2.0/compact?lat=33.43778&lon=69.02774
AF	Zundī Khēl	Zundī Khēl	Zundī Khēl	1120547	folkesett stad	befolket sted	populated place	Afghanistan	Afghanistan	Afghanistan	0	33.75344	69.32771	2575	Paktia	https://api.met.no/weatherapi/locationforecast/2.0/compact?lat=33.75344&lon=69.32771
AF	Ziṟah	Ziṟah	Ziṟah	1120594	folkesett stad	befolket sted	populated place	Afghanistan	Afghanistan	Afghanistan	0	33.55500	69.56667	2597	Khost	https://api.met.no/weatherapi/locationforecast/2.0/compact?lat=33.55500&lon=69.56667
AF	Khōst	Khōst	Khōst	1136469	regionshovudstad	regionshovedstad	regional capital	Afghanistan	Afghanistan	Afghanistan	96123	33.33951	69.92041	1178	Khost	https://api.met.no/weatherapi/locationforecast/2.0/compact?lat=33.33951&lon=69.92041
AF	Zorkot	Zorkot	Zorkot	1120471	folkesett stad	befolket sted	populated place	Afghanistan	Afghanistan	Afghanistan	0	33.54222	69.73417	1883	Khost	https://api.met.no/weatherapi/locationforecast/2.0/compact?lat=33.54222&lon=69.73417
AF	Kōṯay	Kōṯay	Kōṯay	1120481	folkesett stad	befolket sted	populated place	Afghanistan	Afghanistan	Afghanistan	0	33.31570	69.93656	1163	Khost	https://api.met.no/weatherapi/locationforecast/2.0/compact?lat=33.31570&lon=69.93656
AF	Zer Pao	Zer Pao	Zer Pao	1120575	folkesett stad	befolket sted	populated place	Afghanistan	Afghanistan	Afghanistan	0	33.59139	70.13430	1509	Khost	https://api.met.no/weatherapi/locationforecast/2.0/compact?lat=33.59139&lon=70.13430
AF	Zhandar Gaṟay	Zhandar Gaṟay	Zhandar Gaṟay	1120674	folkesett stad	befolket sted	populated place	Afghanistan	Afghanistan	Afghanistan	0	33.20917	69.52722	1670	Khost	https://api.met.no/weatherapi/locationforecast/2.0/compact?lat=33.20917&lon=69.52722
AF	Wetsīr	Wetsīr	Wetsīr	1121603	folkesett stad	befolket sted	populated place	Afghanistan	Afghanistan	Afghanistan	0	35.30523	70.37332	2764	Nurestan	https://api.met.no/weatherapi/locationforecast/2.0/compact?lat=35.30523&lon=70.37332
AF	Wāygalak	Wāygalak	Wāygalak	1121650	folkesett stad	befolket sted	populated place	Afghanistan	Afghanistan	Afghanistan	0	35.16769	70.34823	1944	Nurestan	https://api.met.no/weatherapi/locationforecast/2.0/compact?lat=35.16769&lon=70.34823
AF	Wāygal	Wāygal	Wāygal	1121652	folkesett stad	befolket sted	populated place	Afghanistan	Afghanistan	Afghanistan	0	35.19314	70.99478	2121	Nurestan	https://api.met.no/weatherapi/locationforecast/2.0/compact?lat=35.19314&lon=70.99478
AF	Warishtōr	Warishtōr	Warishtōr	1121721	folkesett stad	befolket sted	populated place	Afghanistan	Afghanistan	Afghanistan	0	35.31432	70.22923	2578	Nurestan	https://api.met.no/weatherapi/locationforecast/2.0/compact?lat=35.31432&lon=70.22923
AF	Tsranu	Tsranu	Tsranu	1121752	folkesett stad	befolket sted	populated place	Afghanistan	Afghanistan	Afghanistan	0	35.12029	70.74492	1996	Nurestan	https://api.met.no/weatherapi/locationforecast/2.0/compact?lat=35.12029&lon=70.74492
AF	Pārūn	Pārūn	Pārūn	1130469	regionshovudstad	regionshovedstad	regional capital	Afghanistan	Afghanistan	Afghanistan	0	35.42070	70.92214	2762	Nurestan	https://api.met.no/weatherapi/locationforecast/2.0/compact?lat=35.42070&lon=70.92214
AF	Pārūn	Pārūn	Pārūn	1130469	regionshovudstad	regionshovedstad	regional capital	Afghanistan	Afghanistan	Afghanistan	0	35.42070	70.92214	2762	Nurestan	https://api.met.no/weatherapi/locationforecast/2.0/compact?lat=35.42070&lon=70.92214
AF	Uruzgān	Uruzgān	Uruzgān	1131462	by	by	town	Afghanistan	Afghanistan	Afghanistan	13388	32.92775	66.63253	2002	Oruzgan	https://api.met.no/weatherapi/locationforecast/2.0/compact?lat=32.92775&lon=66.63253
AF	Zōṟ Bāgh	Zōṟ Bāgh	Zōṟ Bāgh	1120513	folkesett stad	befolket sted	populated place	Afghanistan	Afghanistan	Afghanistan	0	33.01106	65.77141	1182	Daikondi	https://api.met.no/weatherapi/locationforecast/2.0/compact?lat=33.01106&lon=65.77141
AF	Z̄ūlfaqār	Z̄ūlfaqār	Z̄ūlfaqār	1120520	folkesett stad	befolket sted	populated place	Afghanistan	Afghanistan	Afghanistan	0	32.35267	65.27669	1035	Oruzgan	https://api.met.no/weatherapi/locationforecast/2.0/compact?lat=32.35267&lon=65.27669
AF	Zarnī Kêlay	Zarnī Kêlay	Zarnī Kêlay	1120824	folkesett stad	befolket sted	populated place	Afghanistan	Afghanistan	Afghanistan	0	32.39508	65.88798	1615	Kandahar	https://api.met.no/weatherapi/locationforecast/2.0/compact?lat=32.39508&lon=65.88798
AF	Zarnay	Zarnay	Zarnay	1120828	folkesett stad	befolket sted	populated place	Afghanistan	Afghanistan	Afghanistan	0	32.86682	66.60198	2111	Oruzgan	https://api.met.no/weatherapi/locationforecast/2.0/compact?lat=32.86682&lon=66.60198
AF	Tarinkot	Tarinkot	Tarinkot	1122747	regionshovudstad	regionshovedstad	regional capital	Afghanistan	Afghanistan	Afghanistan	0	32.62675	65.87331	1317	Oruzgan	https://api.met.no/weatherapi/locationforecast/2.0/compact?lat=32.62675&lon=65.87331
AF	Tarinkot	Tarinkot	Tarinkot	1122747	regionshovudstad	regionshovedstad	regional capital	Afghanistan	Afghanistan	Afghanistan	0	32.62675	65.87331	1317	Oruzgan	https://api.met.no/weatherapi/locationforecast/2.0/compact?lat=32.62675&lon=65.87331
AF	Meydān-e Dzādzī	Meydān-e Dzādzī	Meydān-e Dzādzī	1133466	folkesett stad	befolket sted	populated place	Afghanistan	Afghanistan	Afghanistan	0	33.43333	70.11667	1021	Parvan	https://api.met.no/weatherapi/locationforecast/2.0/compact?lat=33.43333&lon=70.11667
AF	Mēchalghū	Mēchalghū	Mēchalghū	1134357	folkesett stad	befolket sted	populated place	Afghanistan	Afghanistan	Afghanistan	0	33.77167	69.38389	2601	Paktia	https://api.met.no/weatherapi/locationforecast/2.0/compact?lat=33.77167&lon=69.38389
AF	Zowli	Zowli	Zowli	1120553	folkesett stad	befolket sted	populated place	Afghanistan	Afghanistan	Afghanistan	0	33.48001	65.74540	1683	Daikondi	https://api.met.no/weatherapi/locationforecast/2.0/compact?lat=33.48001&lon=65.74540
AF	Zirāt	Zirāt	Zirāt	1120586	folkesett stad	befolket sted	populated place	Afghanistan	Afghanistan	Afghanistan	0	33.53437	66.68617	2604	Daikondi	https://api.met.no/weatherapi/locationforecast/2.0/compact?lat=33.53437&lon=66.68617
AF	Zīn	Zīn	Zīn	1120604	folkesett stad	befolket sted	populated place	Afghanistan	Afghanistan	Afghanistan	0	33.22605	66.07264	1328	Daikondi	https://api.met.no/weatherapi/locationforecast/2.0/compact?lat=33.22605&lon=66.07264
AF	Zayr Bālak	Zayr Bālak	Zayr Bālak	1120700	folkesett stad	befolket sted	populated place	Afghanistan	Afghanistan	Afghanistan	0	34.20306	66.41028	2692	Daikondi	https://api.met.no/weatherapi/locationforecast/2.0/compact?lat=34.20306&lon=66.41028
AF	Zīrāt	Zīrāt	Zīrāt	1120703	folkesett stad	befolket sted	populated place	Afghanistan	Afghanistan	Afghanistan	0	34.01139	66.55611	2946	Daikondi	https://api.met.no/weatherapi/locationforecast/2.0/compact?lat=34.01139&lon=66.55611
AF	Nīlī	Nīlī	Nīlī	1131833	regionshovudstad	regionshovedstad	regional capital	Afghanistan	Afghanistan	Afghanistan	0	33.72178	66.13023	2084	Daikondi	https://api.met.no/weatherapi/locationforecast/2.0/compact?lat=33.72178&lon=66.13023
AF	Nīlī	Nīlī	Nīlī	1131833	regionshovudstad	regionshovedstad	regional capital	Afghanistan	Afghanistan	Afghanistan	0	33.72178	66.13023	2084	Daikondi	https://api.met.no/weatherapi/locationforecast/2.0/compact?lat=33.72178&lon=66.13023
AF	Bāzārak	Bāzārak	Bāzārak	1429434	regionshovudstad	regionshovedstad	regional capital	Afghanistan	Afghanistan	Afghanistan	0	35.31292	69.51519	1991	Panjshir	https://api.met.no/weatherapi/locationforecast/2.0/compact?lat=35.31292&lon=69.51519
AG	All Saints	All Saints	All Saints	3576397	folkesett stad	befolket sted	populated place	Antigua og Barbuda	Antigua og Barbuda	Antigua and Barbuda	2526	17.05000	-61.80000	1	Other	https://api.met.no/weatherapi/locationforecast/2.0/compact?lat=17.05000&lon=-61.80000
AG	All Saints	All Saints	All Saints	3576397	folkesett stad	befolket sted	populated place	Antigua og Barbuda	Antigua og Barbuda	Antigua and Barbuda	2526	17.05000	-61.80000	1	Other	https://api.met.no/weatherapi/locationforecast/2.0/compact?lat=17.05000&lon=-61.80000
AG	Liberta	Liberta	Liberta	3576144	folkesett stad	befolket sted	populated place	Antigua og Barbuda	Antigua og Barbuda	Antigua and Barbuda	1668	17.03333	-61.78333	1	St._Paul	https://api.met.no/weatherapi/locationforecast/2.0/compact?lat=17.03333&lon=-61.78333
AG	Bolans	Bolans	Bolans	3576361	folkesett stad	befolket sted	populated place	Antigua og Barbuda	Antigua og Barbuda	Antigua and Barbuda	1657	17.03333	-61.88333	1	St._Mary	https://api.met.no/weatherapi/locationforecast/2.0/compact?lat=17.03333&lon=-61.88333
AG	Potters Village	Potters Village	Potters Village	3576050	folkesett stad	befolket sted	populated place	Antigua og Barbuda	Antigua og Barbuda	Antigua and Barbuda	1433	17.08333	-61.81667	1	St._John	https://api.met.no/weatherapi/locationforecast/2.0/compact?lat=17.08333&lon=-61.81667
AG	Parham	Parham	Parham	3576074	folkesett stad	befolket sted	populated place	Antigua og Barbuda	Antigua og Barbuda	Antigua and Barbuda	969	17.08333	-61.76667	1	St._Peter	https://api.met.no/weatherapi/locationforecast/2.0/compact?lat=17.08333&lon=-61.76667
AG	Codrington	Codrington	Codrington	3576311	folkesett stad	befolket sted	populated place	Antigua og Barbuda	Antigua og Barbuda	Antigua and Barbuda	682	17.63333	-61.83333	1	Barbuda	https://api.met.no/weatherapi/locationforecast/2.0/compact?lat=17.63333&lon=-61.83333
AG	Codrington	Codrington	Codrington	3576312	flyplass	flyplass	airfield	Antigua og Barbuda	Antigua og Barbuda	Antigua and Barbuda	0	17.63333	-61.81667	1	Barbuda	https://api.met.no/weatherapi/locationforecast/2.0/compact?lat=17.63333&lon=-61.81667
AG	The Caves	The Caves	The Caves	3575969	liten stad	lite sted	populated locality	Antigua og Barbuda	Antigua og Barbuda	Antigua and Barbuda	0	17.68333	-61.78333	1	Barbuda	https://api.met.no/weatherapi/locationforecast/2.0/compact?lat=17.68333&lon=-61.78333
AG	Dulcina	Dulcina	Dulcina	3576272	folkesett stad	befolket sted	populated place	Antigua og Barbuda	Antigua og Barbuda	Antigua and Barbuda	0	17.58333	-61.81667		Barbuda	https://api.met.no/weatherapi/locationforecast/2.0/compact?lat=17.58333&lon=-61.81667
AG	The Canal	The Canal	The Canal	3575970	liten stad	lite sted	locality	Antigua og Barbuda	Antigua og Barbuda	Antigua and Barbuda	0	17.60000	-61.85000	1	Barbuda	https://api.met.no/weatherapi/locationforecast/2.0/compact?lat=17.60000&lon=-61.85000
AG	Carlisle	Carlisle	Carlisle	3576344	liten stad	lite sted	populated locality	Antigua og Barbuda	Antigua og Barbuda	Antigua and Barbuda	831	17.13333	-61.80000	1	St._George	https://api.met.no/weatherapi/locationforecast/2.0/compact?lat=17.13333&lon=-61.80000
AG	The Grove	The Grove	The Grove	3575965	folkesett stad	befolket sted	populated place	Antigua og Barbuda	Antigua og Barbuda	Antigua and Barbuda	0	17.10000	-61.80000	1	St._George	https://api.met.no/weatherapi/locationforecast/2.0/compact?lat=17.10000&lon=-61.80000
AG	Sea View Farm	Sea View Farm	Sea View Farm	3576004	folkesett stad	befolket sted	populated place	Antigua og Barbuda	Antigua og Barbuda	Antigua and Barbuda	0	17.08333	-61.80000	1	St._George	https://api.met.no/weatherapi/locationforecast/2.0/compact?lat=17.08333&lon=-61.80000
AG	Piggotts	Piggotts	Piggotts	3576057	folkesett stad	befolket sted	populated place	Antigua og Barbuda	Antigua og Barbuda	Antigua and Barbuda	0	17.11667	-61.80000	1	St._George	https://api.met.no/weatherapi/locationforecast/2.0/compact?lat=17.11667&lon=-61.80000
AG	Paynters	Paynters	Paynters	3576069	folkesett stad	befolket sted	populated place	Antigua og Barbuda	Antigua og Barbuda	Antigua and Barbuda	0	17.11667	-61.80000	1	St._George	https://api.met.no/weatherapi/locationforecast/2.0/compact?lat=17.11667&lon=-61.80000
AG	Potters Village	Potters Village	Potters Village	3576050	folkesett stad	befolket sted	populated place	Antigua og Barbuda	Antigua og Barbuda	Antigua and Barbuda	1433	17.08333	-61.81667	1	St._John	https://api.met.no/weatherapi/locationforecast/2.0/compact?lat=17.08333&lon=-61.81667
AG	Cedar Grove	Cedar Grove	Cedar Grove	3576338	folkesett stad	befolket sted	populated place	Antigua og Barbuda	Antigua og Barbuda	Antigua and Barbuda	789	17.16667	-61.81667	1	St._John	https://api.met.no/weatherapi/locationforecast/2.0/compact?lat=17.16667&lon=-61.81667
AG	Woods	Woods	Woods	3575933	folkesett stad	befolket sted	populated place	Antigua og Barbuda	Antigua og Barbuda	Antigua and Barbuda	0	17.13333	-61.81667	1	St._John	https://api.met.no/weatherapi/locationforecast/2.0/compact?lat=17.13333&lon=-61.81667
AG	Weatherills	Weatherills	Weatherills	3575950	folkesett stad	befolket sted	populated place	Antigua og Barbuda	Antigua og Barbuda	Antigua and Barbuda	0	17.16667	-61.83333	1	St._John	https://api.met.no/weatherapi/locationforecast/2.0/compact?lat=17.16667&lon=-61.83333
AG	Tomlinson	Tomlinson	Tomlinson	3575962	liten stad	lite sted	populated locality	Antigua og Barbuda	Antigua og Barbuda	Antigua and Barbuda	0	17.11667	-61.80000	1	St._John	https://api.met.no/weatherapi/locationforecast/2.0/compact?lat=17.11667&lon=-61.80000
AG	Saint John’s	Saint John’s	St. John's	3576022	Hovudstad	Hovedstad	capital	Antigua og Barbuda	Antigua og Barbuda	Antigua and Barbuda	24226	17.11667	-61.85000	1	St._John	https://api.met.no/weatherapi/locationforecast/2.0/compact?lat=17.11667&lon=-61.85000
AG	Bolans	Bolans	Bolans	3576361	folkesett stad	befolket sted	populated place	Antigua og Barbuda	Antigua og Barbuda	Antigua and Barbuda	1657	17.03333	-61.88333	1	St._Mary	https://api.met.no/weatherapi/locationforecast/2.0/compact?lat=17.03333&lon=-61.88333
AG	Old Road	Old Road	Old Road	3576085	folkesett stad	befolket sted	populated place	Antigua og Barbuda	Antigua og Barbuda	Antigua and Barbuda	623	17.01667	-61.83333	1	St._Mary	https://api.met.no/weatherapi/locationforecast/2.0/compact?lat=17.01667&lon=-61.83333
AG	Yorks	Yorks	Yorks	3575930	liten stad	lite sted	populated locality	Antigua og Barbuda	Antigua og Barbuda	Antigua and Barbuda	0	17.08333	-61.86667	1	St._Mary	https://api.met.no/weatherapi/locationforecast/2.0/compact?lat=17.08333&lon=-61.86667
AG	Urlings	Urlings	Urlings	3575956	folkesett stad	befolket sted	populated place	Antigua og Barbuda	Antigua og Barbuda	Antigua and Barbuda	0	17.03333	-61.86667	1	St._Mary	https://api.met.no/weatherapi/locationforecast/2.0/compact?lat=17.03333&lon=-61.86667
AG	Seaforths	Seaforths	Seaforths	3576006	folkesett stad	befolket sted	populated place	Antigua og Barbuda	Antigua og Barbuda	Antigua and Barbuda	0	17.10000	-61.86667	1	St._Mary	https://api.met.no/weatherapi/locationforecast/2.0/compact?lat=17.10000&lon=-61.86667
AG	Liberta	Liberta	Liberta	3576144	folkesett stad	befolket sted	populated place	Antigua og Barbuda	Antigua og Barbuda	Antigua and Barbuda	1668	17.03333	-61.78333	1	St._Paul	https://api.met.no/weatherapi/locationforecast/2.0/compact?lat=17.03333&lon=-61.78333
AG	Swetes	Swetes	Swetes	3575975	folkesett stad	befolket sted	populated place	Antigua og Barbuda	Antigua og Barbuda	Antigua and Barbuda	727	17.05000	-61.80000	1	St._Paul	https://api.met.no/weatherapi/locationforecast/2.0/compact?lat=17.05000&lon=-61.80000
AG	English Harbour Town	English Harbour Town	English Harbour Town	3576264	folkesett stad	befolket sted	populated place	Antigua og Barbuda	Antigua og Barbuda	Antigua and Barbuda	666	17.01667	-61.76667		St._Paul	https://api.met.no/weatherapi/locationforecast/2.0/compact?lat=17.01667&lon=-61.76667
AG	Willis Freemans	Willis Freemans	Willis Freemans	3575939	liten stad	lite sted	populated locality	Antigua og Barbuda	Antigua og Barbuda	Antigua and Barbuda	0	17.05000	-61.76667	1	St._Paul	https://api.met.no/weatherapi/locationforecast/2.0/compact?lat=17.05000&lon=-61.76667
AG	Table Hill Gordon	Table Hill Gordon	Table Hill Gordon	3575973	folkesett stad	befolket sted	populated place	Antigua og Barbuda	Antigua og Barbuda	Antigua and Barbuda	0	17.05000	-61.78333	1	St._Paul	https://api.met.no/weatherapi/locationforecast/2.0/compact?lat=17.05000&lon=-61.78333
AG	Parham	Parham	Parham	3576074	folkesett stad	befolket sted	populated place	Antigua og Barbuda	Antigua og Barbuda	Antigua and Barbuda	969	17.08333	-61.76667	1	St._Peter	https://api.met.no/weatherapi/locationforecast/2.0/compact?lat=17.08333&lon=-61.76667
AG	Vernons	Vernons	Vernons	3575952	folkesett stad	befolket sted	populated place	Antigua og Barbuda	Antigua og Barbuda	Antigua and Barbuda	0	17.10000	-61.76667	1	St._Peter	https://api.met.no/weatherapi/locationforecast/2.0/compact?lat=17.10000&lon=-61.76667
AG	The Garden	The Garden	The Garden	3575966	liten stad	lite sted	populated locality	Antigua og Barbuda	Antigua og Barbuda	Antigua and Barbuda	0	17.06667	-61.73333	1	St._Peter	https://api.met.no/weatherapi/locationforecast/2.0/compact?lat=17.06667&lon=-61.73333
AG	The Diamond	The Diamond	The Diamond	3575968	folkesett stad	befolket sted	populated place	Antigua og Barbuda	Antigua og Barbuda	Antigua and Barbuda	0	17.06667	-61.75000	1	St._Peter	https://api.met.no/weatherapi/locationforecast/2.0/compact?lat=17.06667&lon=-61.75000
AG	Parrys	Parrys	Parrys	3576072	liten stad	lite sted	populated locality	Antigua og Barbuda	Antigua og Barbuda	Antigua and Barbuda	0	17.06667	-61.76667	1	St._Peter	https://api.met.no/weatherapi/locationforecast/2.0/compact?lat=17.06667&lon=-61.76667
AG	Freetown	Freetown	Freetown	3576236	folkesett stad	befolket sted	populated place	Antigua og Barbuda	Antigua og Barbuda	Antigua and Barbuda	623	17.05000	-61.70000	1	St._Philip	https://api.met.no/weatherapi/locationforecast/2.0/compact?lat=17.05000&lon=-61.70000
AG	Willoughby	Willoughby	Willoughby	3575938	folkesett stad	befolket sted	populated place	Antigua og Barbuda	Antigua og Barbuda	Antigua and Barbuda	0	17.03333	-61.71667		St._Philip	https://api.met.no/weatherapi/locationforecast/2.0/compact?lat=17.03333&lon=-61.71667
AG	Willikies	Willikies	Willikies	3575940	folkesett stad	befolket sted	populated place	Antigua og Barbuda	Antigua og Barbuda	Antigua and Barbuda	0	17.08333	-61.70000		St._Philip	https://api.met.no/weatherapi/locationforecast/2.0/compact?lat=17.08333&lon=-61.70000
AG	Watsons	Watsons	Watsons	3575951	folkesett stad	befolket sted	populated place	Antigua og Barbuda	Antigua og Barbuda	Antigua and Barbuda	0	17.05000	-61.68333	1	St._Philip	https://api.met.no/weatherapi/locationforecast/2.0/compact?lat=17.05000&lon=-61.68333
AG	The Brook	The Brook	The Brook	3575971	folkesett stad	befolket sted	populated place	Antigua og Barbuda	Antigua og Barbuda	Antigua and Barbuda	0	17.06667	-61.68333	1	St._Philip	https://api.met.no/weatherapi/locationforecast/2.0/compact?lat=17.06667&lon=-61.68333
AI	The Valley	The Valley	The Valley	3573374	Hovudstad	Hovedstad	capital	Anguilla	Anguilla	Anguilla	1169	18.21704	-63.05783	7	Other	https://api.met.no/weatherapi/locationforecast/2.0/compact?lat=18.21704&lon=-63.05783
AI	Stoney Ground	Stoney Ground	Stoney Ground	3573380	folkesett stad	befolket sted	populated place	Anguilla	Anguilla	Anguilla	1225	18.21667	-63.03333	1	Other	https://api.met.no/weatherapi/locationforecast/2.0/compact?lat=18.21667&lon=-63.03333
AI	Island Harbour	Island Harbour	Island Harbour	3573456	folkesett stad	befolket sted	populated place	Anguilla	Anguilla	Anguilla	910	18.25601	-63.01020	1	Other	https://api.met.no/weatherapi/locationforecast/2.0/compact?lat=18.25601&lon=-63.01020
AI	George Hill	George Hill	George Hill	3573466	folkesett stad	befolket sted	populated place	Anguilla	Anguilla	Anguilla	871	18.20000	-63.06667	1	Other	https://api.met.no/weatherapi/locationforecast/2.0/compact?lat=18.20000&lon=-63.06667
AI	Blowing Point Village	Blowing Point Village	Blowing Point Village	3573496	folkesett stad	befolket sted	populated place	Anguilla	Anguilla	Anguilla	819	18.16667	-63.08333		Other	https://api.met.no/weatherapi/locationforecast/2.0/compact?lat=18.16667&lon=-63.08333
AI	The Valley	The Valley	The Valley	3573374	Hovudstad	Hovedstad	capital	Anguilla	Anguilla	Anguilla	1169	18.21704	-63.05783	7	Other	https://api.met.no/weatherapi/locationforecast/2.0/compact?lat=18.21704&lon=-63.05783
AI	Stoney Ground	Stoney Ground	Stoney Ground	3573380	folkesett stad	befolket sted	populated place	Anguilla	Anguilla	Anguilla	1225	18.21667	-63.03333	1	Other	https://api.met.no/weatherapi/locationforecast/2.0/compact?lat=18.21667&lon=-63.03333
AI	Island Harbour	Island Harbour	Island Harbour	3573456	folkesett stad	befolket sted	populated place	Anguilla	Anguilla	Anguilla	910	18.25601	-63.01020	1	Other	https://api.met.no/weatherapi/locationforecast/2.0/compact?lat=18.25601&lon=-63.01020
AI	George Hill	George Hill	George Hill	3573466	folkesett stad	befolket sted	populated place	Anguilla	Anguilla	Anguilla	871	18.20000	-63.06667	1	Other	https://api.met.no/weatherapi/locationforecast/2.0/compact?lat=18.20000&lon=-63.06667
AI	Blowing Point Village	Blowing Point Village	Blowing Point Village	3573496	folkesett stad	befolket sted	populated place	Anguilla	Anguilla	Anguilla	819	18.16667	-63.08333		Other	https://api.met.no/weatherapi/locationforecast/2.0/compact?lat=18.16667&lon=-63.08333
AL	Tirana	Tirana	Tirana	3183875	Hovudstad	Hovedstad	capital	Albania	Albania	Albania	374801	41.32750	19.81889	103	Tirana	https://api.met.no/weatherapi/locationforecast/2.0/compact?lat=41.32750&lon=19.81889
AL	Durrës	Durrës	Durrës	3185728	regionshovudstad	regionshovedstad	regional capital	Albania	Albania	Albania	122034	41.32306	19.44139		Durrës	https://api.met.no/weatherapi/locationforecast/2.0/compact?lat=41.32306&lon=19.44139
AL	Elbasan	Elbasan	Elbasan	783263	regionshovudstad	regionshovedstad	regional capital	Albania	Albania	Albania	100903	41.11250	20.08222	126	Elbasan	https://api.met.no/weatherapi/locationforecast/2.0/compact?lat=41.11250&lon=20.08222
AL	Vlorë	Vlorë	Vlorë	3183719	regionshovudstad	regionshovedstad	regional capital	Albania	Albania	Albania	89546	40.46667	19.48972	58	Vlora	https://api.met.no/weatherapi/locationforecast/2.0/compact?lat=40.46667&lon=19.48972
AL	Shkodër	Shkodër	Shkodër	3184081	regionshovudstad	regionshovedstad	regional capital	Albania	Albania	Albania	88245	42.06828	19.51258	17	Shkodër	https://api.met.no/weatherapi/locationforecast/2.0/compact?lat=42.06828&lon=19.51258
AL	Berat	Berat	Berat	3186084	regionshovudstad	regionshovedstad	regional capital	Albania	Albania	Albania	46866	40.70583	19.95222	69	Berat	https://api.met.no/weatherapi/locationforecast/2.0/compact?lat=40.70583&lon=19.95222
AL	Kuçovë	Kuçovë	Kuçovë	3185060	by	by	town	Albania	Albania	Albania	18166	40.80028	19.91667	95	Berat	https://api.met.no/weatherapi/locationforecast/2.0/compact?lat=40.80028&lon=19.91667
AL	Çorovodë	Çorovodë	Çorovodë	783408	by	by	town	Albania	Albania	Albania	14046	40.50417	20.22722	539	Berat	https://api.met.no/weatherapi/locationforecast/2.0/compact?lat=40.50417&lon=20.22722
AL	Poliçan	Poliçan	Poliçan	781979	by	by	town	Albania	Albania	Albania	10663	40.61222	20.09806	407	Berat	https://api.met.no/weatherapi/locationforecast/2.0/compact?lat=40.61222&lon=20.09806
AL	Ura Vajgurore	Ura Vajgurore	Ura Vajgurore	3183814	folkesett stad	befolket sted	populated place	Albania	Albania	Albania	4893	40.76889	19.87778	30	Berat	https://api.met.no/weatherapi/locationforecast/2.0/compact?lat=40.76889&lon=19.87778
AL	Burrel	Burrel	Burrel	783493	by	by	town	Albania	Albania	Albania	15405	41.61028	20.00889	196	Dibër	https://api.met.no/weatherapi/locationforecast/2.0/compact?lat=41.61028&lon=20.00889
AL	Peshkopi	Peshkopi	Peshkopi	782061	regionshovudstad	regionshovedstad	regional capital	Albania	Albania	Albania	14848	41.68500	20.42889	718	Dibër	https://api.met.no/weatherapi/locationforecast/2.0/compact?lat=41.68500&lon=20.42889
AL	Bulqizë	Bulqizë	Bulqizë	783508	by	by	town	Albania	Albania	Albania	11212	41.49167	20.22194	729	Dibër	https://api.met.no/weatherapi/locationforecast/2.0/compact?lat=41.49167&lon=20.22194
AL	Klos	Klos	Klos	782806	folkesett stad	befolket sted	populated place	Albania	Albania	Albania	683	41.50694	20.08667	275	Dibër	https://api.met.no/weatherapi/locationforecast/2.0/compact?lat=41.50694&lon=20.08667
AL	Marice	Marice	Marice	834147	folkesett stad	befolket sted	populated place	Albania	Albania	Albania	5	41.43806	20.02222	1096	Dibër	https://api.met.no/weatherapi/locationforecast/2.0/compact?lat=41.43806&lon=20.02222
AL	Durrës	Durrës	Durrës	3185728	regionshovudstad	regionshovedstad	regional capital	Albania	Albania	Albania	122034	41.32306	19.44139		Durrës	https://api.met.no/weatherapi/locationforecast/2.0/compact?lat=41.32306&lon=19.44139
AL	Krujë	Krujë	Krujë	3185082	by	by	town	Albania	Albania	Albania	21286	41.50917	19.79278	870	Durrës	https://api.met.no/weatherapi/locationforecast/2.0/compact?lat=41.50917&lon=19.79278
AL	Shijak	Shijak	Shijak	3184099	by	by	town	Albania	Albania	Albania	14138	41.34556	19.56722	57	Durrës	https://api.met.no/weatherapi/locationforecast/2.0/compact?lat=41.34556&lon=19.56722
AL	Fushë-Krujë	Fushë-Krujë	Fushë-Krujë	3185638	by	by	town	Albania	Albania	Albania	10458	41.47833	19.71778	41	Durrës	https://api.met.no/weatherapi/locationforecast/2.0/compact?lat=41.47833&lon=19.71778
AL	Metaj	Metaj	Metaj	3316627	folkesett stad	befolket sted	populated place	Albania	Albania	Albania	5	41.49333	19.90528	695	Durrës	https://api.met.no/weatherapi/locationforecast/2.0/compact?lat=41.49333&lon=19.90528
AL	Elbasan	Elbasan	Elbasan	783263	regionshovudstad	regionshovedstad	regional capital	Albania	Albania	Albania	100903	41.11250	20.08222	126	Elbasan	https://api.met.no/weatherapi/locationforecast/2.0/compact?lat=41.11250&lon=20.08222
AL	Cërrik	Cërrik	Cërrik	3185897	by	by	town	Albania	Albania	Albania	14269	41.03167	19.97583	70	Elbasan	https://api.met.no/weatherapi/locationforecast/2.0/compact?lat=41.03167&lon=19.97583
AL	Librazhd-Qendër	Librazhd-Qendër	Librazhd-Qendër	832209	by	by	town	Albania	Albania	Albania	12691	41.19694	20.33556	436	Elbasan	https://api.met.no/weatherapi/locationforecast/2.0/compact?lat=41.19694&lon=20.33556
AL	Gramsh	Gramsh	Gramsh	783059	by	by	town	Albania	Albania	Albania	11556	40.86972	20.18444	342	Elbasan	https://api.met.no/weatherapi/locationforecast/2.0/compact?lat=40.86972&lon=20.18444
AL	Peqin	Peqin	Peqin	3184497	folkesett stad	befolket sted	populated place	Albania	Albania	Albania	7513	41.04611	19.75111	37	Elbasan	https://api.met.no/weatherapi/locationforecast/2.0/compact?lat=41.04611&lon=19.75111
AL	Fier-Çifçi	Fier-Çifçi	Fier-Çifçi	3185670	del av folkesett stad	del av befolket sted	section of populated place	Albania	Albania	Albania	60995	40.71667	19.56667	7	Fier	https://api.met.no/weatherapi/locationforecast/2.0/compact?lat=40.71667&lon=19.56667
AL	Lushnjë	Lushnjë	Lushnjë	3184862	by	by	city	Albania	Albania	Albania	41469	40.94194	19.70500	81	Fier	https://api.met.no/weatherapi/locationforecast/2.0/compact?lat=40.94194&lon=19.70500
AL	Patos Fshat	Patos Fshat	Patos Fshat	3184517	by	by	town	Albania	Albania	Albania	22679	40.64278	19.65083	118	Fier	https://api.met.no/weatherapi/locationforecast/2.0/compact?lat=40.64278&lon=19.65083
AL	Ballsh	Ballsh	Ballsh	3186145	by	by	town	Albania	Albania	Albania	10361	40.59889	19.73472	232	Fier	https://api.met.no/weatherapi/locationforecast/2.0/compact?lat=40.59889&lon=19.73472
AL	Roskovec	Roskovec	Roskovec	3184290	folkesett stad	befolket sted	populated place	Albania	Albania	Albania	6657	40.73750	19.70222	24	Fier	https://api.met.no/weatherapi/locationforecast/2.0/compact?lat=40.73750&lon=19.70222
AL	Fier	Fier	Fier	3185672	regionshovudstad	regionshovedstad	regional capital	Albania	Albania	Albania	56297	40.72389	19.55611	17	Fier	https://api.met.no/weatherapi/locationforecast/2.0/compact?lat=40.72389&lon=19.55611
AL	Fier	Fier	Fier	3185672	regionshovudstad	regionshovedstad	regional capital	Albania	Albania	Albania	56297	40.72389	19.55611	17	Fier	https://api.met.no/weatherapi/locationforecast/2.0/compact?lat=40.72389&lon=19.55611
AL	Gjirokastra	Gjirokastra	Gjirokastër	783148	regionshovudstad	regionshovedstad	regional capital	Albania	Albania	Albania	23437	40.07583	20.13889	213	Gjirokastër	https://api.met.no/weatherapi/locationforecast/2.0/compact?lat=40.07583&lon=20.13889
AL	Tepelenë	Tepelenë	Tepelenë	781443	by	by	town	Albania	Albania	Albania	11955	40.29583	20.01917	112	Gjirokastër	https://api.met.no/weatherapi/locationforecast/2.0/compact?lat=40.29583&lon=20.01917
AL	Përmet	Përmet	Përmet	782070	by	by	town	Albania	Albania	Albania	10686	40.23361	20.35167	281	Gjirokastër	https://api.met.no/weatherapi/locationforecast/2.0/compact?lat=40.23361&lon=20.35167
AL	Memaliaj	Memaliaj	Memaliaj	3184743	folkesett stad	befolket sted	populated place	Albania	Albania	Albania	4951	40.35167	19.98028	141	Gjirokastër	https://api.met.no/weatherapi/locationforecast/2.0/compact?lat=40.35167&lon=19.98028
AL	Libohovë	Libohovë	Libohovë	782523	folkesett stad	befolket sted	populated place	Albania	Albania	Albania	3651	40.03111	20.26306	536	Gjirokastër	https://api.met.no/weatherapi/locationforecast/2.0/compact?lat=40.03111&lon=20.26306
AL	Korçë	Korçë	Korçë	782756	regionshovudstad	regionshovedstad	regional capital	Albania	Albania	Albania	58259	40.61861	20.78083	876	Korçë	https://api.met.no/weatherapi/locationforecast/2.0/compact?lat=40.61861&lon=20.78083
AL	Ersekë	Ersekë	Ersekë	783259	folkesett stad	befolket sted	populated place	Albania	Albania	Albania	7890	40.33778	20.67889	1024	Korçë	https://api.met.no/weatherapi/locationforecast/2.0/compact?lat=40.33778&lon=20.67889
AL	Bilisht	Bilisht	Bilisht	783606	folkesett stad	befolket sted	populated place	Albania	Albania	Albania	7114	40.62750	20.99000	946	Korçë	https://api.met.no/weatherapi/locationforecast/2.0/compact?lat=40.62750&lon=20.99000
AL	Maliq	Maliq	Maliq	782393	folkesett stad	befolket sted	populated place	Albania	Albania	Albania	3735	40.70583	20.69972	824	Korçë	https://api.met.no/weatherapi/locationforecast/2.0/compact?lat=40.70583&lon=20.69972
AL	Leskovik	Leskovik	Leskovik	782535	folkesett stad	befolket sted	populated place	Albania	Albania	Albania	2655	40.15139	20.59722	908	Korçë	https://api.met.no/weatherapi/locationforecast/2.0/compact?lat=40.15139&lon=20.59722
AL	Kukës	Kukës	Kukës	782661	regionshovudstad	regionshovedstad	regional capital	Albania	Albania	Albania	17832	42.07694	20.42194	339	Kukës	https://api.met.no/weatherapi/locationforecast/2.0/compact?lat=42.07694&lon=20.42194
AL	Bajram Curri	Bajram Curri	Bajram Curri	783708	administrativ inndeling	administrativ inndeling	administrative division	Albania	Albania	Albania	7967	42.35644	20.07460	313	Kukës	https://api.met.no/weatherapi/locationforecast/2.0/compact?lat=42.35644&lon=20.07460
AL	Fierzë	Fierzë	Fierzë	793174	folkesett stad	befolket sted	populated place	Albania	Albania	Albania	742	42.26472	20.02694	474	Kukës	https://api.met.no/weatherapi/locationforecast/2.0/compact?lat=42.26472&lon=20.02694
AL	Novoselë	Novoselë	Novoselë	782166	folkesett stad	befolket sted	populated place	Albania	Albania	Albania	4	41.98278	20.58806	1273	Kukës	https://api.met.no/weatherapi/locationforecast/2.0/compact?lat=41.98278&lon=20.58806
AL	Zogaj	Zogaj	Zogaj	781076	folkesett stad	befolket sted	populated place	Albania	Albania	Albania	0	42.29500	20.29639	541	Kukës	https://api.met.no/weatherapi/locationforecast/2.0/compact?lat=42.29500&lon=20.29639
AL	Laç	Laç	Laç	3185012	by	by	town	Albania	Albania	Albania	24825	41.63556	19.71306	89	Lezhë	https://api.met.no/weatherapi/locationforecast/2.0/compact?lat=41.63556&lon=19.71306
AL	Lezhë	Lezhë	Lezhë	3184935	regionshovudstad	regionshovedstad	regional capital	Albania	Albania	Albania	18695	41.78361	19.64361	82	Lezhë	https://api.met.no/weatherapi/locationforecast/2.0/compact?lat=41.78361&lon=19.64361
AL	Rrëshen	Rrëshen	Rrëshen	3184264	by	by	town	Albania	Albania	Albania	10064	41.76750	19.87556	129	Lezhë	https://api.met.no/weatherapi/locationforecast/2.0/compact?lat=41.76750&lon=19.87556
AL	Mamurras	Mamurras	Mamurras	3184806	folkesett stad	befolket sted	populated place	Albania	Albania	Albania	8282	41.57750	19.69222	79	Lezhë	https://api.met.no/weatherapi/locationforecast/2.0/compact?lat=41.57750&lon=19.69222
AL	Shëngjin	Shëngjin	Shëngjin	3184136	folkesett stad	befolket sted	populated place	Albania	Albania	Albania	2698	41.81361	19.59389		Lezhë	https://api.met.no/weatherapi/locationforecast/2.0/compact?lat=41.81361&lon=19.59389
AL	Shkodër	Shkodër	Shkodër	3184081	regionshovudstad	regionshovedstad	regional capital	Albania	Albania	Albania	88245	42.06828	19.51258	17	Shkodër	https://api.met.no/weatherapi/locationforecast/2.0/compact?lat=42.06828&lon=19.51258
AL	Pukë	Pukë	Pukë	3184388	folkesett stad	befolket sted	populated place	Albania	Albania	Albania	6495	42.04444	19.89972	795	Shkodër	https://api.met.no/weatherapi/locationforecast/2.0/compact?lat=42.04444&lon=19.89972
AL	Koplik	Koplik	Koplik	3185133	folkesett stad	befolket sted	populated place	Albania	Albania	Albania	4078	42.21361	19.43639	71	Shkodër	https://api.met.no/weatherapi/locationforecast/2.0/compact?lat=42.21361&lon=19.43639
AL	Fushë-Arrëz	Fushë-Arrëz	Fushë-Arrëz	783214	folkesett stad	befolket sted	populated place	Albania	Albania	Albania	2438	42.06222	20.01667	590	Shkodër	https://api.met.no/weatherapi/locationforecast/2.0/compact?lat=42.06222&lon=20.01667
AL	Kryezi	Kryezi	Kryezi	782678	folkesett stad	befolket sted	populated place	Albania	Albania	Albania	4	42.09389	20.05000	880	Shkodër	https://api.met.no/weatherapi/locationforecast/2.0/compact?lat=42.09389&lon=20.05000
AL	Tirana	Tirana	Tirana	3183875	Hovudstad	Hovedstad	capital	Albania	Albania	Albania	374801	41.32750	19.81889	103	Tirana	https://api.met.no/weatherapi/locationforecast/2.0/compact?lat=41.32750&lon=19.81889
AL	Kavajë	Kavajë	Kavajë	3185211	by	by	town	Albania	Albania	Albania	29354	41.18556	19.55694	10	Tirana	https://api.met.no/weatherapi/locationforecast/2.0/compact?lat=41.18556&lon=19.55694
AL	Kamëz	Kamëz	Kamëz	3185270	by	by	town	Albania	Albania	Albania	11026	41.38167	19.76028	73	Tirana	https://api.met.no/weatherapi/locationforecast/2.0/compact?lat=41.38167&lon=19.76028
AL	Rrogozhinë	Rrogozhinë	Rrogozhinë	3184252	folkesett stad	befolket sted	populated place	Albania	Albania	Albania	5620	41.07639	19.66528	48	Tirana	https://api.met.no/weatherapi/locationforecast/2.0/compact?lat=41.07639&lon=19.66528
AL	Vorë	Vorë	Vorë	3183708	folkesett stad	befolket sted	populated place	Albania	Albania	Albania	4973	41.39083	19.65500	74	Tirana	https://api.met.no/weatherapi/locationforecast/2.0/compact?lat=41.39083&lon=19.65500
AL	Vlorë	Vlorë	Vlorë	3183719	regionshovudstad	regionshovedstad	regional capital	Albania	Albania	Albania	89546	40.46667	19.48972	58	Vlora	https://api.met.no/weatherapi/locationforecast/2.0/compact?lat=40.46667&lon=19.48972
AL	Sarandë	Sarandë	Sarandë	363243	by	by	town	Albania	Albania	Albania	15147	39.87556	20.00528	170	Vlora	https://api.met.no/weatherapi/locationforecast/2.0/compact?lat=39.87556&lon=20.00528
AL	Selenicë	Selenicë	Selenicë	3184197	folkesett stad	befolket sted	populated place	Albania	Albania	Albania	6912	40.53056	19.63583	113	Vlora	https://api.met.no/weatherapi/locationforecast/2.0/compact?lat=40.53056&lon=19.63583
AL	Himarë	Himarë	Himarë	3185377	folkesett stad	befolket sted	populated place	Albania	Albania	Albania	4596	40.10167	19.74472	60	Vlora	https://api.met.no/weatherapi/locationforecast/2.0/compact?lat=40.10167&lon=19.74472
AL	Delvinë	Delvinë	Delvinë	363383	folkesett stad	befolket sted	populated place	Albania	Albania	Albania	3916	39.95111	20.09778	255	Vlora	https://api.met.no/weatherapi/locationforecast/2.0/compact?lat=39.95111&lon=20.09778
AM	Spitak	Spitak	Spitak	616199	by	by	town	Armenia	Armenia	Armenia	15059	40.83220	44.26730	1514	Lori	https://api.met.no/weatherapi/locationforecast/2.0/compact?lat=40.83220&lon=44.26730
AM	Berd	Berd	Berd	616802	folkesett stad	befolket sted	populated place	Armenia	Armenia	Armenia	8374	40.88149	45.38985	932	Tavush	https://api.met.no/weatherapi/locationforecast/2.0/compact?lat=40.88149&lon=45.38985
AM	Akhuryan	Akhuryan	Akhuryan	616989	folkesett stad	befolket sted	populated place	Armenia	Armenia	Armenia	7672	40.78003	43.90027	1546	Shirak	https://api.met.no/weatherapi/locationforecast/2.0/compact?lat=40.78003&lon=43.90027
AM	Nerk’in Getashen	Nerk’in Getashen	Nerk’in Getashen	616375	folkesett stad	befolket sted	populated place	Armenia	Armenia	Armenia	7010	40.14046	45.27900	1943	Gegharkunik	https://api.met.no/weatherapi/locationforecast/2.0/compact?lat=40.14046&lon=45.27900
AM	Gugark’	Gugark’	Gugark'	616648	folkesett stad	befolket sted	populated place	Armenia	Armenia	Armenia	4705	40.80460	44.54025	1378	Lori	https://api.met.no/weatherapi/locationforecast/2.0/compact?lat=40.80460&lon=44.54025
AM	Jerevan	Jerevan	Yerevan	616052	Hovudstad	Hovedstad	capital	Armenia	Armenia	Armenia	1093485	40.18111	44.51361	1002	Yerevan	https://api.met.no/weatherapi/locationforecast/2.0/compact?lat=40.18111&lon=44.51361
AM	Gyumri	Gyumri	Gyumri	616635	regionshovudstad	regionshovedstad	regional capital	Armenia	Armenia	Armenia	148381	40.79420	43.84528	1553	Shirak	https://api.met.no/weatherapi/locationforecast/2.0/compact?lat=40.79420&lon=43.84528
AM	Vanadzor	Vanadzor	Vanadzor	616530	regionshovudstad	regionshovedstad	regional capital	Armenia	Armenia	Armenia	101098	40.80456	44.49390	1368	Lori	https://api.met.no/weatherapi/locationforecast/2.0/compact?lat=40.80456&lon=44.49390
AM	Ejmiatsin	Ejmiatsin	Echmiadzin	616062	by	by	city	Armenia	Armenia	Armenia	49513	40.16557	44.29462	872	Armavir	https://api.met.no/weatherapi/locationforecast/2.0/compact?lat=40.16557&lon=44.29462
AM	Hrazdan	Hrazdan	Hrazdan	616629	regionshovudstad	regionshovedstad	regional capital	Armenia	Armenia	Armenia	40795	40.49748	44.76620	1780	Kotayk	https://api.met.no/weatherapi/locationforecast/2.0/compact?lat=40.49748&lon=44.76620
AM	Ashtarak	Ashtarak	Ashtarak	616877	regionshovudstad	regionshovedstad	regional capital	Armenia	Armenia	Armenia	18779	40.29910	44.36204	1140	Aragatsotn	https://api.met.no/weatherapi/locationforecast/2.0/compact?lat=40.29910&lon=44.36204
AM	Aparan	Aparan	Aparan	616953	folkesett stad	befolket sted	populated place	Armenia	Armenia	Armenia	5670	40.59323	44.35890	1904	Aragatsotn	https://api.met.no/weatherapi/locationforecast/2.0/compact?lat=40.59323&lon=44.35890
AM	T’alin	T’alin	T’alin	616187	folkesett stad	befolket sted	populated place	Armenia	Armenia	Armenia	4945	40.38428	43.87387	1612	Aragatsotn	https://api.met.no/weatherapi/locationforecast/2.0/compact?lat=40.38428&lon=43.87387
AM	Oshakan	Oshakan	Oshakan	616320	folkesett stad	befolket sted	populated place	Armenia	Armenia	Armenia	4768	40.26460	44.31456	1060	Aragatsotn	https://api.met.no/weatherapi/locationforecast/2.0/compact?lat=40.26460&lon=44.31456
AM	Zovuni	Zovuni	Zovuni	616034	folkesett stad	befolket sted	populated place	Armenia	Armenia	Armenia	4484	40.51083	44.42889	1852	Aragatsotn	https://api.met.no/weatherapi/locationforecast/2.0/compact?lat=40.51083&lon=44.42889
AM	Ararat	Ararat	Ararat	174991	by	by	town	Armenia	Armenia	Armenia	28832	39.83166	44.70489	813	Ararat	https://api.met.no/weatherapi/locationforecast/2.0/compact?lat=39.83166&lon=44.70489
AM	Artashat	Artashat	Artashat	174979	regionshovudstad	regionshovedstad	regional capital	Armenia	Armenia	Armenia	20562	39.96144	44.54447	838	Ararat	https://api.met.no/weatherapi/locationforecast/2.0/compact?lat=39.96144&lon=44.54447
AM	Masis	Masis	Masis	616435	by	by	town	Armenia	Armenia	Armenia	18911	40.06762	44.43591	843	Ararat	https://api.met.no/weatherapi/locationforecast/2.0/compact?lat=40.06762&lon=44.43591
AM	Vedi	Vedi	Vedi	174725	by	by	town	Armenia	Armenia	Armenia	12192	39.91421	44.72217	904	Ararat	https://api.met.no/weatherapi/locationforecast/2.0/compact?lat=39.91421&lon=44.72217
AM	Avshar	Avshar	Avshar	174969	folkesett stad	befolket sted	populated place	Armenia	Armenia	Armenia	4215	39.85360	44.67930	842	Ararat	https://api.met.no/weatherapi/locationforecast/2.0/compact?lat=39.85360&lon=44.67930
AM	Ejmiatsin	Ejmiatsin	Echmiadzin	616062	by	by	city	Armenia	Armenia	Armenia	49513	40.16557	44.29462	872	Armavir	https://api.met.no/weatherapi/locationforecast/2.0/compact?lat=40.16557&lon=44.29462
AM	Armavir	Armavir	Armavir	616631	regionshovudstad	regionshovedstad	regional capital	Armenia	Armenia	Armenia	25963	40.15446	44.03815	878	Armavir	https://api.met.no/weatherapi/locationforecast/2.0/compact?lat=40.15446&lon=44.03815
AM	Metsamor	Metsamor	Metsamor	616417	folkesett stad	befolket sted	populated place	Armenia	Armenia	Armenia	8789	40.07302	44.28962	842	Armavir	https://api.met.no/weatherapi/locationforecast/2.0/compact?lat=40.07302&lon=44.28962
AM	Hoktember	Hoktember	Hoktember	616328	folkesett stad	befolket sted	populated place	Armenia	Armenia	Armenia	5348	40.13206	44.00969	869	Armavir	https://api.met.no/weatherapi/locationforecast/2.0/compact?lat=40.13206&lon=44.00969
AM	Mrgashat	Mrgashat	Mrgashat	616400	folkesett stad	befolket sted	populated place	Armenia	Armenia	Armenia	4961	40.12462	44.06584	860	Armavir	https://api.met.no/weatherapi/locationforecast/2.0/compact?lat=40.12462&lon=44.06584
AM	Armavir	Armavir	Armavir	616902	regionshovudstad	regionshovedstad	regional capital	Armenia	Armenia	Armenia	2752	40.08658	44.05363	865	Armavir	https://api.met.no/weatherapi/locationforecast/2.0/compact?lat=40.08658&lon=44.05363
AM	Armavir	Armavir	Armavir	616902	regionshovudstad	regionshovedstad	regional capital	Armenia	Armenia	Armenia	2752	40.08658	44.05363	865	Armavir	https://api.met.no/weatherapi/locationforecast/2.0/compact?lat=40.08658&lon=44.05363
AM	Gavarr	Gavarr	Gavarr	616599	regionshovudstad	regionshovedstad	regional capital	Armenia	Armenia	Armenia	21680	40.35398	45.12386	1942	Gegharkunik	https://api.met.no/weatherapi/locationforecast/2.0/compact?lat=40.35398&lon=45.12386
AM	Sevan	Sevan	Sevan	616250	by	by	town	Armenia	Armenia	Armenia	17083	40.54840	44.94868	1892	Gegharkunik	https://api.met.no/weatherapi/locationforecast/2.0/compact?lat=40.54840&lon=44.94868
AM	Vardenis	Vardenis	Vardenis	616108	by	by	town	Armenia	Armenia	Armenia	11382	40.18272	45.73110	1944	Gegharkunik	https://api.met.no/weatherapi/locationforecast/2.0/compact?lat=40.18272&lon=45.73110
AM	Martuni	Martuni	Martuni	616438	by	by	town	Armenia	Armenia	Armenia	11037	40.13768	45.30450	1925	Gegharkunik	https://api.met.no/weatherapi/locationforecast/2.0/compact?lat=40.13768&lon=45.30450
AM	Vardenik	Vardenik	Vardenik	616109	folkesett stad	befolket sted	populated place	Armenia	Armenia	Armenia	7709	40.13928	45.43342	2031	Gegharkunik	https://api.met.no/weatherapi/locationforecast/2.0/compact?lat=40.13928&lon=45.43342
AM	Hrazdan	Hrazdan	Hrazdan	616629	regionshovudstad	regionshovedstad	regional capital	Armenia	Armenia	Armenia	40795	40.49748	44.76620	1780	Kotayk	https://api.met.no/weatherapi/locationforecast/2.0/compact?lat=40.49748&lon=44.76620
AM	Abovyan	Abovyan	Abovyan	617026	by	by	city	Armenia	Armenia	Armenia	35673	40.26741	44.62656	1420	Kotayk	https://api.met.no/weatherapi/locationforecast/2.0/compact?lat=40.26741&lon=44.62656
AM	Yeghvard	Yeghvard	Yeghvard	616065	by	by	town	Armenia	Armenia	Armenia	10705	40.32053	44.48138	1335	Kotayk	https://api.met.no/weatherapi/locationforecast/2.0/compact?lat=40.32053&lon=44.48138
AM	Byureghavan	Byureghavan	Byureghavan	616790	folkesett stad	befolket sted	populated place	Armenia	Armenia	Armenia	6972	40.31485	44.59396	1411	Kotayk	https://api.met.no/weatherapi/locationforecast/2.0/compact?lat=40.31485&lon=44.59396
AM	Garrni	Garrni	Garrni	616697	folkesett stad	befolket sted	populated place	Armenia	Armenia	Armenia	6827	40.11931	44.73442	1402	Kotayk	https://api.met.no/weatherapi/locationforecast/2.0/compact?lat=40.11931&lon=44.73442
AM	Vanadzor	Vanadzor	Vanadzor	616530	regionshovudstad	regionshovedstad	regional capital	Armenia	Armenia	Armenia	101098	40.80456	44.49390	1368	Lori	https://api.met.no/weatherapi/locationforecast/2.0/compact?lat=40.80456&lon=44.49390
AM	Alaverdi	Alaverdi	Alaverdi	616974	by	by	town	Armenia	Armenia	Armenia	13184	41.09766	44.67316	768	Lori	https://api.met.no/weatherapi/locationforecast/2.0/compact?lat=41.09766&lon=44.67316
AM	Tashir	Tashir	Tashir	616178	folkesett stad	befolket sted	populated place	Armenia	Armenia	Armenia	7318	41.12072	44.28462	1523	Lori	https://api.met.no/weatherapi/locationforecast/2.0/compact?lat=41.12072&lon=44.28462
AM	Metsavan	Metsavan	Metsavan	616416	folkesett stad	befolket sted	populated place	Armenia	Armenia	Armenia	4767	41.20156	44.22877	1560	Lori	https://api.met.no/weatherapi/locationforecast/2.0/compact?lat=41.20156&lon=44.22877
AM	Odzun	Odzun	Odzun	616330	folkesett stad	befolket sted	populated place	Armenia	Armenia	Armenia	4524	41.05321	44.61341	1100	Lori	https://api.met.no/weatherapi/locationforecast/2.0/compact?lat=41.05321&lon=44.61341
AM	Gyumri	Gyumri	Gyumri	616635	regionshovudstad	regionshovedstad	regional capital	Armenia	Armenia	Armenia	148381	40.79420	43.84528	1553	Shirak	https://api.met.no/weatherapi/locationforecast/2.0/compact?lat=40.79420&lon=43.84528
AM	Maralik	Maralik	Maralik	616446	folkesett stad	befolket sted	populated place	Armenia	Armenia	Armenia	4959	40.57453	43.86862	1717	Shirak	https://api.met.no/weatherapi/locationforecast/2.0/compact?lat=40.57453&lon=43.86862
AM	Azatan	Azatan	Azatan	616835	folkesett stad	befolket sted	populated place	Armenia	Armenia	Armenia	4448	40.71959	43.82727	1490	Shirak	https://api.met.no/weatherapi/locationforecast/2.0/compact?lat=40.71959&lon=43.82727
AM	Pemzashen	Pemzashen	Pemzashen	616303	folkesett stad	befolket sted	populated place	Armenia	Armenia	Armenia	2436	40.58510	43.94021	1805	Shirak	https://api.met.no/weatherapi/locationforecast/2.0/compact?lat=40.58510&lon=43.94021
